City_ID,City,Lat,Lng,Max Temp,Humidity,Cloudiness,Wind Speed,Country,Date
0,blackmans bay,-43.0167,147.3167,295.66,62,30,1.59,AU,1738451706
1,west island,-12.1568,96.8225,301.14,83,40,5.66,CC,1738451708
2,grytviken,-54.2811,-36.5092,276.06,82,53,5.18,GS,1738451709
3,port-aux-francais,-49.35,70.2167,278.1,86,100,9.0,TF,1738451710
4,longyearbyen,78.2186,15.6401,274.06,69,75,7.72,SJ,1738451412
5,minas de marcona,-15.2119,-75.1103,292.55,74,90,4.28,PE,1738451712
6,keflavik,64.0049,-22.5624,276.39,93,75,12.35,IS,1738451713
7,adamstown,-25.066,-130.1015,298.01,70,91,7.03,PN,1738451714
8,saynshand,44.8824,110.1163,254.06,76,1,5.68,MN,1738451715
9,okha,53.5739,142.9478,250.19,95,98,3.82,RU,1738451716
10,port mathurin,-19.6833,63.4167,300.23,85,100,8.93,MU,1738451718
11,kingston,17.997,-76.7936,299.91,80,14,1.05,JM,1738451719
12,andreyevo,55.9465,41.1505,275.05,97,100,3.64,RU,1738451720
13,ilulissat,69.2167,-51.1,260.16,85,100,10.8,GL,1738451721
14,codrington,-38.2667,141.9667,300.91,43,2,1.58,AU,1738451722
15,ushuaia,-54.8,-68.3,284.43,84,100,2.53,AR,1738451723
16,georgetown,5.4112,100.3354,298.12,69,20,1.54,MY,1738451724
17,edinburgh of the seven seas,-37.0676,-12.3116,290.94,92,92,6.44,SH,1738451725
18,waitangi,-43.9535,-176.5597,290.83,94,100,1.79,NZ,1738451727
19,kavieng,-2.5744,150.7967,302.71,67,93,6.3,PG,1738451728
20,isafjordur,66.0755,-23.124,271.19,96,81,3.19,IS,1738451729
21,ribeira grande,38.5167,-28.7,286.37,76,20,3.58,PT,1738451730
22,sandnessjoen,66.0217,12.6316,270.24,78,8,7.43,NO,1738451731
23,tannum sands,-23.9504,151.3693,299.09,73,100,5.14,AU,1738451732
24,aleksandrovskoye,44.7142,43.0008,275.13,92,100,0.95,RU,1738451733
25,tazovsky,67.4667,78.7,245.8,90,52,4.49,RU,1738451734
26,toba,34.4833,136.85,280.53,89,100,4.01,JP,1738451735
27,wotje,9.4543,170.2367,300.33,77,26,8.62,MH,1738451737
28,wenatchee,47.4235,-120.3103,280.36,42,20,3.09,US,1738451561
29,egilsstadir,65.2653,-14.3948,275.62,72,77,12.67,IS,1738451739
30,bethel,41.3712,-73.414,269.21,61,0,4.63,US,1738451740
31,bella vista,36.4295,-94.2316,285.9,64,0,7.72,US,1738451741
32,margaret river,-33.95,115.0667,287.95,89,32,2.99,AU,1738451593
33,hermanus,-34.4187,19.2345,292.48,81,22,1.65,ZA,1738451743
34,laojunmiao,39.8333,97.7333,263.54,84,100,2.59,CN,1738451744
35,montevideo,-34.8335,-56.1674,297.92,76,0,5.14,UY,1738451746
36,utrik,11.2278,169.8474,299.6,70,31,8.71,MH,1738451747
37,dunedin,-45.8742,170.5036,287.2,69,97,3.67,NZ,1738451748
38,nyrob,60.733,56.7202,273.02,99,100,0.78,RU,1738451749
39,san antonio de pale,-1.4014,5.6325,300.5,77,70,3.0,GQ,1738451750
40,afaahiti,-17.75,-149.2833,299.6,77,97,4.99,PF,1738451751
41,lebu,-37.6167,-73.65,288.79,73,0,6.54,CL,1738451752
42,punta arenas,-53.15,-70.9167,287.21,62,0,8.23,CL,1738451753
43,kocakoy,38.2903,40.5025,275.22,39,7,2.64,TR,1738451754
44,laguna,38.421,-121.4238,285.34,92,100,10.29,US,1738451756
45,remire-montjoly,4.9167,-52.2667,297.17,94,40,0.0,GF,1738451757
46,rockland,41.1668,-74.0496,270.91,40,10,5.51,US,1738451758
47,yellowknife,62.456,-114.3525,244.57,92,36,4.92,CA,1738451759
48,lihue,21.9789,-159.3672,298.4,54,0,4.12,US,1738451760
49,thompson,55.7435,-97.8558,256.04,94,100,3.3,CA,1738451761
50,vernon,50.2581,-119.2691,272.31,66,65,0.32,CA,1738451762
51,sabang,5.8933,95.3214,300.04,69,98,3.02,ID,1738451763
52,tanah rata,4.475,101.3704,287.78,89,92,0.44,MY,1738451765
53,nykarleby,63.5228,22.5307,269.77,94,99,4.27,FI,1738451766
54,pariaman,-0.619,100.12,298.18,90,99,1.88,ID,1738451767
55,newcastle,-32.9272,151.7765,299.14,61,89,3.09,AU,1738451768
56,vadso,70.0744,29.7487,273.24,64,100,10.29,NO,1738451769
57,iqaluit,63.7506,-68.5145,238.9,92,54,1.92,CA,1738451770
58,badger,64.8,-147.5333,255.45,77,100,1.54,US,1738451771
59,sinabang,2.4803,96.3801,299.38,81,100,1.28,ID,1738451772
60,guaruja,-23.9931,-46.2564,298.06,94,100,1.34,BR,1738451773
61,marka,1.7159,44.7717,296.75,82,93,8.13,SO,1738451775
62,karratha,-20.7377,116.8463,304.11,71,70,2.73,AU,1738451776
63,stanley,54.868,-1.6985,276.16,84,0,4.12,GB,1738451777
64,tsuruoka,38.7217,139.8217,274.01,69,45,1.54,JP,1738451530
65,presidente medici,-11.1753,-61.9014,297.28,97,98,1.88,BR,1738451780
66,malango,-2.9627,119.9001,292.44,85,97,1.5,ID,1738451781
67,praia da vitoria,38.7333,-27.0667,286.27,69,51,2.0,PT,1738451782
68,flying fish cove,-10.4217,105.6791,299.97,94,100,5.66,CX,1738451783
69,newberry,34.2746,-81.6187,287.87,72,0,1.96,US,1738451786
70,atafu village,-8.5421,-172.5159,301.14,77,34,7.16,TK,1738451787
71,kristiansund,63.1115,7.732,273.51,64,100,2.57,NO,1738451788
72,la ronge,55.1001,-105.2842,255.29,85,100,3.09,CA,1738451789
73,crane,31.3974,-102.3501,296.18,10,1,3.5,US,1738451790
74,puerto natales,-51.7236,-72.4875,285.87,72,100,1.74,CL,1738451791
75,funafuti,-8.5243,179.1942,304.15,74,40,5.66,TV,1738451792
76,ntoum,0.3833,9.7833,297.85,91,55,1.32,GA,1738451794
77,college,64.8569,-147.8028,255.49,69,100,1.54,US,1738451497
78,portland,45.5234,-122.6762,281.45,79,75,3.13,US,1738451608
79,burang,30.25,81.1667,255.96,21,0,2.93,CN,1738451797
80,bredasdorp,-34.5322,20.0403,292.77,73,88,2.55,ZA,1738451798
81,callao,-12.0667,-77.15,297.31,73,0,7.2,PE,1738451799
82,vikulovo,56.8167,70.6107,261.83,97,98,1.68,RU,1738451800
83,salavan,15.7167,106.4167,289.73,72,34,1.84,LA,1738451801
84,celestun,20.8667,-90.4,298.05,81,64,6.02,MX,1738451803
85,ust-nera,64.5667,143.2,237.88,99,99,1.35,RU,1738451804
86,duku,11.2361,4.9073,298.38,19,22,2.37,NG,1738451805
87,hithadhoo,-0.6,73.0833,300.74,77,100,3.31,MV,1738451806
88,chonchi,-42.6128,-73.8092,290.44,57,36,1.64,CL,1738451807
89,sittwe,20.15,92.9,292.73,83,23,4.72,MM,1738451808
90,nishinoomote,30.7333,131.0,287.62,81,100,10.87,JP,1738451809
91,sola,-13.8833,167.55,301.21,77,100,10.02,VU,1738451810
92,fenyi,27.8112,114.6681,281.27,94,100,1.02,CN,1738451813
93,douentza,14.9951,-2.9517,294.71,17,89,4.42,ML,1738451814
94,qaqortoq,60.7167,-46.0333,255.87,93,31,1.65,GL,1738451815
95,buckeye,33.3703,-112.5838,297.71,19,22,0.38,US,1738451590
96,mugia,43.1041,-9.2179,285.32,90,100,3.12,ES,1738451817
97,geraldton,-28.7667,114.6,294.38,88,0,4.12,AU,1738451818
98,susuman,62.7833,148.1667,228.63,100,83,0.33,RU,1738451819
99,quellon,-43.1167,-73.6167,288.21,62,65,2.0,CL,1738451820
100,fada,7.25,4.0667,297.69,81,7,1.05,NG,1738451822
101,margate,51.3813,1.3862,276.87,81,3,0.45,GB,1738451823
102,albany,42.6001,-73.9662,262.38,73,30,6.71,US,1738451824
103,iskateley,67.6803,53.1512,252.57,95,56,5.78,RU,1738451825
104,bilibino,68.0546,166.4372,239.67,98,100,0.35,RU,1738451826
105,tynda,55.1667,124.7167,252.55,97,100,2.05,RU,1738451827
106,burela de cabo,43.65,-7.4,283.75,92,100,1.33,ES,1738451828
107,klyuchi,52.2667,79.1667,266.62,95,100,5.73,RU,1738451829
108,shevchenko,48.5,35.0,274.98,99,100,3.75,UA,1738451831
109,harper,4.375,-7.7169,299.87,83,29,2.45,LR,1738451832
110,saipan,15.1355,145.701,300.54,89,75,5.14,MP,1738451833
111,tukrah,32.5341,20.5791,286.84,55,96,3.7,LY,1738451834
112,loukhi,66.0764,33.0381,267.03,93,100,5.48,RU,1738451835
113,wailua homesteads,22.0669,-159.378,298.07,62,0,4.12,US,1738451836
114,papatowai,-46.5619,169.4708,288.38,52,70,3.11,NZ,1738451837
115,pathein,16.7833,94.7333,295.29,80,100,4.62,MM,1738451838
116,serov,59.6033,60.5787,272.31,96,100,1.75,RU,1738451839
117,east london,-33.0153,27.9116,295.53,87,47,4.82,ZA,1738451841
118,yung shue wan,22.2333,114.1167,291.9,90,100,0.45,HK,1738451842
119,kodiak,57.79,-152.4072,274.88,80,0,1.54,US,1738451843
120,tiksi,71.6872,128.8694,244.88,98,100,4.84,RU,1738451844
121,haciqabul,40.0408,48.9445,278.86,81,3,0.65,AZ,1738451846
122,bria,6.5423,21.9863,295.17,27,61,1.12,CF,1738451847
123,avarua,-21.2078,-159.775,301.18,74,20,4.63,CK,1738451849
124,kailua-kona,19.6406,-155.9956,301.26,75,40,4.12,US,1738451770
125,vilyuchinsk,52.9306,158.4028,262.3,82,71,4.48,RU,1738451851
126,itoman,26.1247,127.6694,292.16,86,75,7.2,JP,1738451852
127,tommot,58.9564,126.2925,247.16,100,100,0.85,RU,1738451853
128,hobyo,5.3505,48.5268,296.96,79,70,9.32,SO,1738451854
129,kenora,49.8167,-94.4337,263.69,85,100,6.17,CA,1738451855
130,severo-yeniseyskiy,60.3725,93.0408,239.33,100,55,1.47,RU,1738451856
131,kamaishi,39.2667,141.8833,272.32,59,92,1.62,JP,1738451857
132,samalut,28.3121,30.7101,286.75,67,100,3.97,EG,1738451859
133,bikenibeu village,1.3673,173.1241,302.13,84,40,7.2,KI,1738451861
134,rikaze,29.25,88.8833,269.74,20,0,1.18,CN,1738451862
135,yuzhno-kurilsk,44.0306,145.8556,269.96,76,100,4.82,RU,1738451863
136,kiruna,67.8557,20.2251,270.66,86,100,2.57,SE,1738451864
137,viveiro,43.6623,-7.5934,285.5,89,100,1.67,ES,1738451865
138,klaksvik,62.2266,-6.589,279.34,92,100,5.54,FO,1738451867
139,carnarvon,-24.8667,113.6333,302.12,60,36,9.62,AU,1738451868
140,kiuruvesi,63.65,26.6167,268.46,95,93,2.86,FI,1738451869
141,fort st. john,56.2499,-120.8529,248.09,58,40,5.66,CA,1738451870
142,arish,31.1316,33.7984,288.47,65,17,2.47,EG,1738451871
143,hamilton,39.1834,-84.5333,275.82,65,0,5.14,US,1738451872
144,smirnykh,49.75,142.8333,255.89,85,99,2.12,RU,1738451873
145,bom jardim,-7.7958,-35.5872,297.04,79,20,4.32,BR,1738451874
146,greenville,35.6127,-77.3663,286.12,67,100,5.14,US,1738451875
147,el calafate,-50.3408,-72.2768,287.92,53,36,3.7,AR,1738451877
148,kuala belait,4.5833,114.1833,296.5,88,100,1.9,BN,1738451878
149,bubaque,11.2833,-15.8333,299.68,56,1,6.03,GW,1738451879
150,olonkinbyen,70.9221,-8.7187,273.07,97,100,13.03,SJ,1738451880
151,essaouira,31.5125,-9.77,285.87,71,0,2.57,MA,1738451881
152,afonso bezerra,-5.4983,-36.5056,301.03,56,4,8.47,BR,1738451882
153,garoowe,8.4054,48.4845,291.3,77,9,5.35,SO,1738451884
154,nizhneudinsk,54.9076,99.0276,250.53,99,62,0.75,RU,1738451885
155,port-vila,-17.7338,168.3219,301.93,74,100,5.14,VU,1738451887
156,bidar,17.9,77.55,293.66,42,100,2.7,IN,1738451888
157,anadyr,64.75,177.4833,257.43,84,100,6.0,RU,1738451889
158,alice springs,-23.7,133.8833,306.9,22,8,2.57,AU,1738451890
159,bamboo flat,11.7,92.7167,294.2,94,40,1.03,IN,1738451891
160,tolanaro,-25.0319,46.9987,297.58,87,90,1.7,MG,1738451892
161,port alfred,-33.5906,26.891,293.25,96,0,3.47,ZA,1738451893
162,obo,5.3998,26.4869,296.34,29,61,1.63,CF,1738451894
163,talnakh,69.4865,88.3972,242.7,96,17,1.91,RU,1738451896
164,visconde do rio branco,-21.0103,-42.8406,296.46,89,93,2.52,BR,1738451897
165,taybad,34.74,60.7756,273.84,66,0,2.48,IR,1738451898
166,maceio,-9.6658,-35.7353,298.84,88,20,1.54,BR,1738451899
167,arraial do cabo,-22.9661,-42.0278,298.39,87,99,11.09,BR,1738451900
168,hawaiian paradise park,19.5933,-154.9731,299.75,86,100,3.09,US,1738451901
169,al marj,32.488,20.8317,283.87,62,93,5.59,LY,1738451902
170,shakhun'ya,57.6758,46.6114,273.82,98,100,4.64,RU,1738451903
171,kurmuk,10.55,34.2833,297.04,29,28,1.56,SD,1738451905
172,shakawe,-18.3667,21.85,295.2,72,88,2.29,BW,1738451906
173,san luis de la loma,17.2706,-100.8939,301.98,51,0,3.84,MX,1738451907
174,new norfolk,-42.7826,147.0587,296.32,32,31,0.55,AU,1738451908
175,cabo san lucas,22.8909,-109.9124,295.32,43,0,3.09,MX,1738451728
176,mont-dore,-22.2833,166.5833,302.61,73,100,5.61,NC,1738451910
177,puerto ayora,-0.7393,-90.3518,298.46,95,83,0.45,EC,1738451911
178,colonia,50.9333,6.95,272.57,85,0,2.57,DE,1738451826
179,petropavlovsk-kamchatsky,53.0452,158.6483,261.48,52,0,1.0,RU,1738451914
180,levuka,50.1834,-105.4011,261.99,89,94,7.05,CA,1738451915
181,chapada dos guimaraes,-15.4606,-55.7497,293.38,95,84,1.95,BR,1738451916
182,salalah,17.0151,54.0924,290.2,19,0,1.54,OM,1738451917
183,pekan,3.4836,103.3996,296.66,84,100,2.06,MY,1738451919
184,nar'yan-mar,67.6713,53.087,252.68,95,60,5.83,RU,1738451920
185,hualien city,23.9769,121.6044,290.55,99,98,3.41,TW,1738451922
186,roma,43.2128,-75.4557,260.2,72,0,3.6,US,1738451924
187,luderitz,-26.6481,15.1594,290.91,73,20,7.6,NA,1738451925
188,wangjing,24.6,94.0333,280.52,90,0,0.28,IN,1738451926
189,nizao,18.25,-70.2,298.64,73,0,5.5,DO,1738451927
190,qamdo,31.1667,97.2333,266.42,69,0,2.35,CN,1738451928
191,sibut,5.718,19.0739,297.9,24,55,1.53,CF,1738451929
192,nemuro,43.3236,145.575,268.95,75,5,2.86,JP,1738451930
193,nanma,36.1817,118.1583,273.03,85,95,1.35,CN,1738451932
194,wewak,-3.5534,143.6268,299.94,84,100,1.68,PG,1738451933
195,dudinka,69.4058,86.1778,238.58,100,27,1.93,RU,1738451934
196,christchurch,-43.5333,172.6333,292.77,66,100,0.51,NZ,1738451935
197,tabou,4.423,-7.3528,299.77,84,19,2.59,CI,1738451936
198,sainte-adresse,49.5089,0.0845,275.39,87,0,5.14,FR,1738451937
199,azul,-36.777,-59.8585,304.9,28,69,5.33,AR,1738451939
200,miri,4.4148,114.0089,296.23,100,20,0.0,MY,1738451941
201,yanchep,-31.55,115.6833,295.2,51,28,2.37,AU,1738451942
202,bangolo,7.0069,-7.475,295.89,26,100,0.25,CI,1738451943
203,port elizabeth,-33.918,25.5701,294.44,98,1,1.79,ZA,1738451944
204,sao jose da coroa grande,-8.8978,-35.1478,299.85,78,13,4.53,BR,1738451945
205,mogadishu,2.0371,45.3438,296.99,83,85,10.03,SO,1738451946
206,novo aripuana,-5.1206,-60.3797,297.28,97,92,1.23,BR,1738451947
207,caldwell,43.6629,-116.6874,281.66,71,100,1.54,US,1738451948
208,nelson bay,-32.7167,152.15,298.76,71,65,2.56,AU,1738451949
209,nizhneangarsk,55.7833,109.55,247.52,79,65,2.77,RU,1738451951
210,zintan,31.9223,12.252,283.83,39,0,4.83,LY,1738451952
211,iquique,-20.2208,-70.1431,294.37,83,44,0.63,CL,1738451953
212,alaghsas,17.0187,8.0168,292.06,15,100,5.2,NE,1738451954
213,nyurba,63.2842,118.3319,243.26,96,100,2.47,RU,1738451955
214,puerto aysen,-45.4,-72.7,285.84,90,98,2.14,CL,1738451956
215,shatura,55.5725,39.5368,275.05,82,100,3.27,RU,1738451957
216,cadale,2.7603,46.3222,297.14,80,97,10.02,SO,1738451958
217,las lomitas,-24.7096,-60.593,304.91,28,0,2.28,AR,1738451961
218,katsuura,35.1333,140.3,280.74,93,100,10.48,JP,1738451832
219,whitehorse,60.7161,-135.0538,248.58,63,20,3.09,CA,1738451963
220,ghat,24.9647,10.1728,291.37,21,100,1.7,LY,1738451964
221,taoudenni,22.6783,-3.9836,287.48,27,0,4.19,ML,1738451965
222,paita,-5.0892,-81.1144,296.32,78,58,4.91,PE,1738451966
223,isla mujeres,21.2311,-86.731,300.98,74,7,4.03,MX,1738451967
224,bir hadaj,31.0263,34.7031,284.7,77,5,1.3,IL,1738451968
225,el granada,37.5027,-122.4694,289.51,93,100,6.17,US,1738451970
226,savelugu,9.6244,-0.8253,300.44,15,70,3.04,GH,1738451971
227,megion,61.0296,76.1136,258.16,99,100,1.62,RU,1738451697
228,vorgashor,67.5833,63.95,246.59,94,49,2.88,RU,1738451973
229,rehoboth,-23.3167,17.0833,297.96,31,31,2.66,NA,1738451974
230,invercargill,-46.4,168.35,289.83,59,95,0.45,NZ,1738451975
231,beipiao,41.7919,120.7792,261.93,90,100,1.37,CN,1738451976
232,baotou,40.6522,109.8222,262.59,77,16,3.86,CN,1738451977
233,ghanzi,-21.5667,21.7833,298.96,43,70,3.76,BW,1738451978
234,lorengau,-2.0226,147.2712,301.8,78,100,2.23,PG,1738451980
235,vila franca do campo,37.7167,-25.4333,287.38,85,43,3.03,PT,1738451981
236,udachny,66.4167,112.4,232.77,100,89,1.94,RU,1738451982
237,thunder bay,48.4001,-89.3168,263.14,85,100,5.14,CA,1738451983
238,posto da mata,-17.8848,-39.8536,297.86,81,55,3.37,BR,1738451984
239,laredo,27.5064,-99.5075,299.31,17,0,5.14,US,1738451985
240,island harbour,50.724,-1.2758,278.7,86,82,0.89,GB,1738451986
241,wynyard,-41.0,145.7167,294.92,73,51,4.47,AU,1738451987
242,antofagasta,-23.65,-70.4,293.75,84,0,1.95,CL,1738451989
243,narvik,68.4384,17.4272,268.11,77,28,3.58,NO,1738451990
244,aasiaat,68.7098,-52.8699,255.04,93,100,5.45,GL,1738451991
245,chibougamau,49.9168,-74.3659,250.94,77,0,2.57,CA,1738451992
246,howard springs,-12.497,131.047,303.64,95,97,3.61,AU,1738451993
247,jamestown,42.097,-79.2353,261.95,85,0,2.06,US,1738451994
248,mahina,-17.5065,-149.489,304.02,70,97,5.66,PF,1738451995
249,filingue,14.3521,3.3168,296.77,15,99,3.17,NE,1738451996
250,juticalpa,14.65,-86.2,300.09,62,41,2.35,HN,1738451998
251,mehekar,20.15,76.5667,293.9,38,77,2.75,IN,1738451999
252,catriel,-37.8791,-67.7956,305.18,25,0,1.92,AR,1738452000
253,santa ana,33.7456,-117.8678,296.37,48,20,4.63,US,1738451907
254,nur-sultan,51.1801,71.446,270.12,93,100,5.0,KZ,1738452002
255,camana,-16.6228,-72.7111,295.95,83,46,1.56,PE,1738452003
256,fortuna,40.5982,-124.1573,285.66,98,75,0.0,US,1738452004
257,palmares do sul,-30.2578,-50.5097,296.5,82,10,3.56,BR,1738452005
258,taro,-8.3862,115.28,293.87,96,100,1.07,ID,1738452007
259,tromso,69.6496,18.957,272.16,100,75,1.03,NO,1738452008
260,cockburn town,21.4612,-71.1419,298.13,88,40,5.14,TC,1738452009
261,santyoku,37.4406,129.1708,274.08,78,79,3.05,KR,1738452010
262,ambodifotatra,-16.9833,49.85,300.9,76,100,1.38,MG,1738452011
263,al bardiyah,31.7561,25.0865,287.62,74,100,4.03,LY,1738452012
264,misliyah,17.4599,42.5572,298.16,75,3,2.15,SA,1738452013
265,ta`u,-14.2336,-169.5144,300.93,80,32,6.83,AS,1738452014
266,itupiranga,-5.1347,-49.3267,296.95,95,93,0.75,BR,1738452015
267,taroa,8.7058,171.2275,299.91,83,3,9.69,MH,1738452017
268,ocana,8.2377,-73.356,296.85,56,86,2.87,CO,1738452018
269,usinsk,65.9939,57.5281,254.89,93,24,6.38,RU,1738452020
270,letterkenny,54.95,-7.7333,280.94,92,100,7.97,IE,1738452021
271,robertsport,6.7533,-11.3686,299.81,88,89,3.11,LR,1738452022
272,humaita,-7.5061,-63.0208,296.97,97,95,0.76,BR,1738452023
273,hillvue,-31.1244,150.915,299.1,41,0,6.17,AU,1738452025
274,midvagur,62.0511,-7.1939,279.61,100,100,3.6,FO,1738452026
275,boyolangu,-8.1181,111.8935,297.12,93,100,2.26,ID,1738452029
276,chita,52.0333,113.55,246.09,70,20,1.0,RU,1738452030
277,inda silase,14.1031,38.2829,289.6,51,5,1.48,ET,1738452031
278,pierre,44.3683,-100.351,286.66,35,0,4.12,US,1738452032
279,tobruk,32.0836,23.9764,287.91,75,100,4.21,LY,1738452034
280,khandyga,62.6667,135.6,228.73,100,97,0.52,RU,1738452035
281,noumea,-22.2763,166.4572,302.61,99,100,7.19,NC,1738452036
282,susanville,40.4163,-120.653,279.06,87,100,4.12,US,1738452037
283,asmara,15.3333,38.9333,283.51,81,60,2.16,ER,1738452038
284,mount isa,-20.7333,139.5,301.02,57,75,9.26,AU,1738452039
285,carutapera,-1.195,-46.02,297.11,93,81,2.79,BR,1738452040
286,atbasar,51.8,68.3333,270.02,96,100,3.81,KZ,1738452042
287,belyy yar,53.6039,91.3903,248.09,92,100,0.0,RU,1738452043
288,alofi,-19.0595,-169.9187,304.09,70,40,4.63,NU,1738452044
289,priyutnoye,46.1011,43.5072,277.4,83,100,3.85,RU,1738452045
290,port hueneme,34.1478,-119.1951,294.41,68,0,4.63,US,1738452046
291,wanaraja,-7.1749,107.9808,293.21,96,93,2.22,ID,1738452047
292,tura,25.5198,90.2201,286.81,47,1,1.13,IN,1738452048
293,st. john's,47.5649,-52.7093,267.02,81,100,3.58,CA,1738452049
294,batouri,4.4333,14.3667,295.94,26,93,0.36,CM,1738452051
295,tamanrasset,22.785,5.5228,284.1,20,0,2.06,DZ,1738452052
296,polyarnyy,69.1989,33.4478,264.14,87,72,3.35,RU,1738452053
297,fale old settlement,-9.3852,-171.2468,301.21,77,25,6.78,TK,1738452054
298,gizo,-8.103,156.8419,302.66,68,100,5.36,SB,1738452055
299,shahba,32.8551,36.629,280.41,68,0,2.18,SY,1738452056
300,amos,48.5669,-78.1162,246.98,100,91,1.15,CA,1738452057
301,viqueque,-8.8673,126.3658,298.49,90,95,1.16,TL,1738452060
302,saint-pierre,-21.3393,55.4781,299.97,89,40,4.12,RE,1738452061
303,mount gambier,-37.8333,140.7667,299.94,43,9,2.44,AU,1738452062
304,sanctuary point,-35.1114,150.629,296.72,64,5,3.23,AU,1738452063
305,castillos,-34.1667,-53.8333,294.54,91,4,2.73,UY,1738452064
306,luanda,-8.8368,13.2343,299.16,82,87,3.5,AO,1738452065
307,kashgar,39.4547,75.9797,267.71,35,0,3.0,CN,1738452066
308,salinopolis,-0.6136,-47.3561,298.69,84,85,4.4,BR,1738452068
309,kitimat,54.0524,-128.6534,264.77,71,100,2.72,CA,1738452069
310,yamada,39.4667,141.95,271.77,56,93,1.37,JP,1738452070
311,dauphin,51.1494,-100.0502,261.23,72,100,5.14,CA,1738452072
312,meadow lakes,61.6247,-149.6011,264.88,60,0,0.0,US,1738452073
313,howrah,22.5892,88.3103,295.15,94,40,0.0,IN,1738452074
314,dawson creek,55.7666,-120.2362,247.95,58,0,3.6,CA,1738451997
315,sitka,57.0531,-135.33,270.09,24,20,8.23,US,1738452077
316,kupang,-10.1667,123.5833,301.47,89,75,6.69,ID,1738452078
317,mawu,34.4307,104.9176,262.57,86,97,1.98,CN,1738452079
318,champerico,14.3,-91.9167,302.41,62,44,4.12,GT,1738452080
319,saacow,1.6279,42.4407,297.13,70,99,6.57,SO,1738452081
320,bozoum,6.3193,16.3799,296.15,22,95,1.12,CF,1738452082
321,rivne,50.6231,26.2274,275.97,83,100,3.56,UA,1738451941
322,prince rupert,54.3161,-130.3201,268.98,56,75,8.75,CA,1738451945
323,aktau,43.65,51.2,272.47,70,0,6.99,KZ,1738452086
324,conceicao do araguaia,-8.2578,-49.2647,297.4,87,63,0.22,BR,1738452087
325,kapa'a,22.0752,-159.319,298.81,59,0,4.12,US,1738452088
326,tsiombe,-25.3,45.4833,295.4,85,5,2.21,MG,1738452089
327,harstad,68.799,16.5293,273.24,82,86,0.45,NO,1738452090
328,petukhovo,55.0692,67.9019,272.53,97,100,3.25,RU,1738452091
329,campbellton,48.0075,-66.6727,256.4,80,87,5.54,CA,1738452092
330,buka,40.8108,69.1986,273.23,67,0,0.84,UZ,1738452093
331,soio,-6.1349,12.3689,299.79,85,97,3.09,AO,1738452095
332,barinas,8.6226,-70.2075,303.32,37,83,4.05,VE,1738452096
333,wenchang,30.904,118.4887,278.74,86,100,3.52,CN,1738452097
334,tarawa,1.419,172.984,302.2,84,40,7.2,KI,1738452098
335,nago,26.5881,127.9761,290.78,84,90,4.01,JP,1738451976
336,queenstown,-31.8976,26.8753,291.3,81,79,1.3,ZA,1738452100
337,enewetak,11.3474,162.3373,300.06,78,69,10.67,MH,1738452101
338,churapcha,62.0025,132.4325,230.98,100,99,1.32,RU,1738452102
339,port blair,11.6667,92.75,294.17,94,40,1.03,IN,1738452104
340,selfoss,63.9331,-20.9971,276.51,79,100,11.14,IS,1738452105
341,yulinshi,38.2906,109.7494,268.26,47,99,4.43,CN,1738452106
342,las heras,-46.5419,-68.9359,293.71,24,100,11.43,AR,1738452107
343,forster,-32.1667,152.5167,296.52,61,79,1.04,AU,1738452108
344,blytheville,35.9273,-89.919,282.14,76,100,2.06,US,1738452109
345,masuguru,-11.3667,38.4167,296.19,91,98,1.5,TZ,1738452110
346,ola,59.5833,151.2833,246.85,83,12,3.58,RU,1738452111
347,taradale,-39.5333,176.85,294.27,73,95,1.79,NZ,1738452112
348,nakamura,32.9833,132.9333,280.25,95,100,1.28,JP,1738452114
349,saudarkrokur,65.7461,-19.6394,272.32,80,41,6.32,IS,1738452115
350,panchgani,17.9167,73.8167,291.81,45,75,1.86,IN,1738452116
351,georgievka,49.3314,81.5761,263.15,81,100,6.65,KZ,1738452118
352,al hawatah,13.4167,34.6333,299.27,32,11,5.82,SD,1738452119
353,constantia,44.1833,28.65,276.53,84,38,4.48,RO,1738452120
354,pitanga,-24.7572,-51.7614,292.29,87,6,0.22,BR,1738452122
355,chui,-33.6971,-53.4616,295.22,90,11,3.01,UY,1738452123
356,dryden,49.7833,-92.7503,262.31,79,100,5.66,CA,1738452124
357,baringo,0.4667,35.9667,297.32,49,88,1.58,KE,1738452125
358,zambezi,-13.5432,23.1047,291.98,84,90,1.62,ZM,1738452126
359,taltal,-25.4,-70.4833,293.59,75,31,1.91,CL,1738452127
360,ambovombe,-25.1667,46.0833,296.39,82,12,3.57,MG,1738452128
361,puerto armuelles,8.2833,-82.8667,301.53,71,100,2.24,PA,1738452129
362,natal,-5.795,-35.2094,301.27,74,0,3.6,BR,1738452130
363,manicore,-5.8092,-61.3003,297.21,98,75,0.7,BR,1738452132
364,mizdah,31.4451,12.9801,284.66,32,0,3.49,LY,1738452133
365,jora,26.3333,77.8167,287.32,52,0,0.75,IN,1738452134
366,enriquillo,17.9,-71.2333,296.56,81,0,4.16,DO,1738452135
367,mulanje,-16.0316,35.5,296.02,91,96,0.55,MW,1738452136
368,dhidhdhoo,6.8833,73.1,300.6,74,91,2.84,MV,1738452138
369,chatellerault,46.8,0.5333,273.46,95,0,2.42,FR,1738452140
370,kargasok,59.0556,80.8572,257.58,95,100,3.7,RU,1738452141
371,princeville,45.7668,-61.2985,266.1,77,100,7.72,CA,1738452142
372,phan rang-thap cham,11.5667,108.9833,292.04,76,48,1.74,VN,1738452143
373,magadan,59.5667,150.8,247.53,78,2,3.07,RU,1738452144
374,tanga,-5.0667,39.1,297.4,89,91,4.87,TZ,1738452145
375,saint-philippe,-21.3585,55.7679,300.29,88,99,5.13,RE,1738452146
376,batangafo,7.3008,18.2833,296.53,21,94,1.39,CF,1738452148
377,aitape,-3.1374,142.3475,300.28,79,100,1.31,PG,1738452150
378,nova sintra,14.8667,-24.7167,295.15,72,0,11.07,CV,1738452151
379,yangambi,0.8102,24.4336,298.0,46,40,0.75,CD,1738452152
380,acapulco de juarez,16.8634,-99.8901,302.05,70,0,5.14,MX,1738452153
381,qobustan,40.0824,49.412,279.96,80,5,1.47,AZ,1738452154
382,guerrero negro,27.9769,-114.0611,292.33,48,28,5.72,MX,1738452128
383,cruzeiro do oeste,-23.785,-53.0733,296.66,69,42,2.01,BR,1738452156
384,galesong,-5.3166,119.3661,299.1,79,99,2.53,ID,1738452157
385,luena,-11.7833,19.9167,289.62,96,100,1.74,AO,1738452158
386,daru,-9.0763,143.2092,300.49,82,100,5.79,PG,1738452160
387,maroantsetra,-15.4333,49.7333,297.63,93,86,1.35,MG,1738452161
388,kanniyakumari,8.0833,77.5667,298.62,81,100,7.43,IN,1738452162
389,gisborne,-38.6533,178.0042,292.34,89,89,5.87,NZ,1738452163
390,lazaro cardenas,17.9583,-102.2,301.31,57,1,4.8,MX,1738452164
391,nueva gerona,21.8833,-82.8,298.78,66,24,1.3,CU,1738452165
392,santa vitoria do palmar,-33.5189,-53.3681,295.22,90,6,2.95,BR,1738452166
393,mohammedia,33.7066,-7.3944,285.26,100,75,2.57,MA,1738452167
394,kerewan,13.4898,-16.0888,296.9,6,0,5.41,GM,1738452168
395,horta,38.5333,-28.6333,285.95,83,20,4.02,PT,1738452170
396,neryungri,56.6709,124.6491,248.49,96,100,3.7,RU,1738452171
397,tanumah,27.1,44.1333,283.84,47,1,4.06,SA,1738452172
398,lompoc,34.6391,-120.4579,292.33,77,20,4.63,US,1738452173
399,pisco,-13.7,-76.2167,296.18,88,75,3.09,PE,1738452174
400,aykhal,66.0,111.5,236.22,100,96,2.94,RU,1738452175
401,uturoa,-16.7333,-151.4333,301.28,69,75,4.13,PF,1738452176
402,mbeya,-8.9,33.45,288.0,94,100,0.88,TZ,1738452177
403,meulaboh,4.1363,96.1285,297.17,91,97,1.74,ID,1738452179
404,razole,16.4833,81.8333,292.39,96,16,0.17,IN,1738452180
405,ginir,7.1333,40.7,287.8,33,21,1.78,ET,1738452181
406,gosaba,22.165,88.7998,293.47,95,0,1.79,IN,1738452182
407,mili,6.0815,171.735,300.39,80,48,8.25,MH,1738452183
408,hasaki,35.7333,140.8333,280.48,88,100,6.82,JP,1738452184
409,vilyuysk,63.7553,121.6247,231.74,100,70,1.61,RU,1738452185
410,parabel',58.6978,81.4825,256.66,94,100,3.22,RU,1738452186
411,mount pearl,47.5166,-52.7813,266.56,83,100,2.57,CA,1738452188
412,yerofey pavlovich,53.9667,121.9667,252.31,98,100,1.12,RU,1738452189
413,gaiman,-43.2897,-65.4929,293.26,43,23,12.53,AR,1738452190
414,cesky krumlov,48.8109,14.3152,269.68,92,60,0.79,CZ,1738452191
415,nili,33.7218,66.1302,260.93,50,0,2.83,AF,1738452192
416,byron bay,-28.65,153.6167,298.91,57,94,5.42,AU,1738452194
417,rodolfo sanchez taboada,31.7167,-116.5667,289.87,98,58,0.89,MX,1738452195
418,milliken,40.3294,-104.8552,285.99,40,99,8.49,US,1738452196
419,leua,48.2156,18.6071,275.76,76,100,2.58,SK,1738452198
420,espinosa,-14.9261,-42.8192,294.86,88,95,1.08,BR,1738452199
421,toliara,-23.35,43.6667,297.81,82,7,3.91,MG,1738452200
422,abeche,13.8292,20.8324,293.54,21,25,3.58,TD,1738452201
423,dwarka,22.2394,68.9678,292.43,53,1,4.47,IN,1738452202
424,trincomalee,8.5711,81.2335,299.83,75,77,3.58,LK,1738452203
425,kruisfontein,-34.0033,24.7314,291.9,88,2,1.8,ZA,1738452204
426,souillac,-20.5167,57.5167,300.36,94,75,5.14,MU,1738452205
427,la'ie,21.6477,-157.9253,300.96,57,1,3.13,US,1738452206
428,gadzhiyevo,69.2551,33.3362,264.8,87,83,3.7,RU,1738452208
429,bougaa,36.3329,5.0884,278.42,91,91,0.96,DZ,1738452209
430,orsk,51.2049,58.5668,273.65,100,100,3.0,RU,1738452147
431,winslow,35.0242,-110.6974,294.25,21,0,6.17,US,1738452211
432,port lincoln,-34.7333,135.8667,297.05,57,0,3.41,AU,1738452212
433,haiku-pauwela,20.9219,-156.3051,298.16,76,40,8.94,US,1738452213
434,chatham,51.3789,0.5279,273.78,1,8,2.57,GB,1738452214
435,castelnovo ne'monti,44.4356,10.4033,276.13,100,100,1.6,IT,1738452216
436,beli,7.8587,10.9719,298.03,17,55,1.27,NG,1738452217
437,san patricio,28.017,-97.5169,296.12,34,79,3.95,US,1738452219
438,saeby,57.3319,10.5225,275.54,87,68,2.47,DK,1738452220
439,raduzhny,62.0961,77.475,254.02,98,98,2.39,RU,1738452221
440,bandar lampung,-5.4254,105.258,295.38,98,89,2.47,ID,1738452222
441,kiunga,-6.1219,141.2906,297.57,91,100,1.46,PG,1738452223
442,oranjemund,-28.55,16.4333,290.22,95,13,2.4,NA,1738452224
443,port clinton,41.512,-82.9377,269.25,80,75,3.6,US,1738452226
444,amungan,15.3652,119.9582,298.55,69,19,1.41,PH,1738452227
445,weno,7.4515,151.8468,301.3,82,98,9.08,FM,1738452228
446,atherton,53.5237,-2.4935,279.4,70,100,1.79,GB,1738452230
447,tual,-5.6667,132.75,300.1,88,100,9.88,ID,1738452231
448,as sulayyil,20.4607,45.5779,287.25,28,0,3.8,SA,1738452232
449,shinyanga,-3.6667,33.4333,292.16,87,80,1.24,TZ,1738452233
450,opuwo,-18.0607,13.84,292.53,64,41,3.34,NA,1738452235
451,northam,51.0333,-4.2167,280.26,80,100,1.79,GB,1738452236
452,ha'il,27.5219,41.6907,282.16,46,0,2.06,SA,1738452237
453,tazacorte,28.629,-17.9293,290.45,85,75,7.72,ES,1738452238
454,ciudad lazaro cardenas,17.9583,-102.2,301.31,57,1,4.8,MX,1738452239
455,fonte boa,-2.4959,-66.2662,297.98,94,77,1.02,BR,1738452240
456,happy valley-goose bay,53.3168,-60.3315,253.32,54,20,5.66,CA,1738452243
457,san isidro,-12.1167,-77.05,296.92,73,0,7.2,PE,1738452244
458,woods creek,47.8787,-121.8985,277.19,90,100,4.17,US,1738452245
459,al mijlad,11.0333,27.7333,294.73,21,6,7.32,SD,1738452246
460,volchikha,52.0333,80.3833,263.46,94,100,5.88,RU,1738452247
461,chichiriviche,10.9333,-68.2772,298.43,84,44,5.55,VE,1738452248
462,bardai,11.65,7.2333,292.84,23,46,3.04,NG,1738452249
463,basoko,1.2391,23.616,298.04,51,43,0.61,CD,1738452250
464,lerwick,60.1545,-1.1494,280.13,89,100,11.96,GB,1738452252
465,mthatha,-31.5889,28.7844,291.77,95,99,1.04,ZA,1738452253
466,port douglas,-16.4833,145.4667,300.62,83,97,2.13,AU,1738452254
467,thayetmyo,19.3167,95.1833,291.58,79,24,1.7,MM,1738452255
468,sungai raya,0.7,108.9,297.7,91,93,2.78,ID,1738452256
469,purpe,64.4803,76.6897,251.23,98,86,4.35,RU,1738452257
470,talas,38.6908,35.5538,267.52,74,0,1.03,TR,1738452258
471,holualoa,19.6228,-155.9522,299.36,74,40,4.12,US,1738452259
472,marsh harbour,26.5412,-77.0636,296.94,77,25,1.63,BS,1738452043
473,madalena,41.2162,-8.3345,285.47,94,100,0.78,PT,1738452262
474,coahuayana de hidalgo,18.7,-103.6583,301.82,50,37,2.22,MX,1738452263
475,itacoatiara,-3.1431,-58.4442,299.78,77,98,0.97,BR,1738452264
476,mildura,-34.2,142.15,310.41,32,54,11.15,AU,1738452265
477,gonaives,19.45,-72.6833,300.82,66,51,1.86,HT,1738452266
478,buurhakaba,2.8026,44.0781,295.71,71,99,5.69,SO,1738452267
479,revda,56.801,59.9303,272.11,93,100,4.69,RU,1738452268
480,vila do maio,15.1333,-23.2167,294.04,70,0,11.77,CV,1738452270
481,truro,50.2653,-5.0544,281.75,81,100,9.77,GB,1738452271
482,puerto baquerizo moreno,-0.9,-89.6,298.26,79,33,1.86,EC,1738452272
483,vila velha,-20.3297,-40.2925,300.12,83,75,6.17,BR,1738452273
484,severoural'sk,60.1533,59.952,267.73,97,95,1.37,RU,1738452274
485,saldanha,-33.0117,17.9442,291.57,87,0,7.59,ZA,1738452275
486,sur,22.5667,59.5289,291.3,57,0,2.37,OM,1738452276
487,wuyang,31.9925,116.2472,278.33,89,100,2.57,CN,1738452277
488,ilha de mocambique,-15.0342,40.7358,299.69,87,99,1.76,MZ,1738452279
489,chinchilla,-26.75,150.6333,299.83,56,89,3.13,AU,1738452280
490,caleta de carquin,-11.0925,-77.6267,296.05,79,74,3.72,PE,1738452281
491,coari,-4.085,-63.1414,297.32,97,100,1.8,BR,1738452282
492,gandu,-13.7439,-39.4867,295.9,95,17,1.39,BR,1738452283
493,kralendijk,12.15,-68.2667,300.14,74,0,6.17,BQ,1738452284
494,kayangel,8.0823,134.7173,301.64,74,84,9.62,PW,1738452285
495,harnai,30.1005,67.9374,281.83,23,0,2.09,PK,1738452286
496,manokwari,-0.8667,134.0833,299.51,82,100,4.63,ID,1738452287
497,thinadhoo,0.5333,72.9333,300.81,78,100,4.22,MV,1738452289
498,kudymkar,59.0173,54.656,272.89,95,100,4.03,RU,1738452290
499,naxos,37.1056,25.3764,288.87,42,50,4.92,GR,1738452291
500,mhamid,29.82,-5.72,284.05,29,0,2.42,MA,1738452292
501,orkney,-26.9802,26.6727,297.6,52,100,5.4,ZA,1738452293
502,kerrville,30.0474,-99.1403,296.07,22,0,5.14,US,1738452013
503,kerikeri,-35.2268,173.9474,298.45,45,14,1.6,NZ,1738452295
504,kankan,10.3854,-9.3057,297.17,16,97,2.34,GN,1738452296
505,westport,41.1415,-73.3579,271.43,53,0,6.17,US,1738452297
506,berezovyy,51.6667,135.7,253.23,99,100,0.48,RU,1738452299
507,kalmunai,7.4167,81.8167,297.41,84,86,1.37,LK,1738452300
508,buxtehude,53.45,9.7,272.01,98,100,1.03,DE,1738452301
509,garnet,33.902,-116.5456,296.59,23,0,3.09,US,1738452302
510,port saint john's,-31.6229,29.5448,296.2,91,99,4.1,ZA,1738452303
511,cascais,38.6979,-9.4215,287.88,81,91,4.02,PT,1738452304
512,tidjikja,18.5564,-11.4271,289.64,18,0,6.9,MR,1738452305
513,fraserburgh,57.6874,-2.0184,279.15,81,100,10.33,GB,1738452306
514,ylitornio,66.3089,23.6773,269.99,94,100,4.18,FI,1738452308
515,cosquin,-31.2451,-64.4656,300.88,56,0,3.56,AR,1738452309
516,chabahar,25.2919,60.643,291.61,43,0,3.26,IR,1738452310
517,cidreira,-30.1811,-50.2056,297.27,83,1,3.86,BR,1738452311
518,tanguieta,10.6212,1.2665,298.05,20,87,2.11,BJ,1738452312
519,antalaha,-14.9003,50.2788,297.73,92,91,1.83,MG,1738452313
520,stalbe,57.3719,25.0343,272.32,95,70,2.42,LV,1738452314
521,alness,57.696,-4.2551,282.02,90,100,2.22,GB,1738452315
522,sinop,41.7711,34.8709,278.29,75,3,1.31,TR,1738452317
523,masindi port,1.6961,32.0861,297.2,45,98,0.57,UG,1738452318
524,aleg,17.0481,-13.9209,293.34,13,0,6.66,MR,1738452319
525,aldan,58.6031,125.3894,246.92,100,100,0.97,RU,1738452320
526,dourbali,11.8091,15.8632,295.56,15,54,4.09,TD,1738452321
527,sisimiut,66.9395,-53.6735,255.87,95,100,2.13,GL,1738452322
528,chipinge,-20.1883,32.6236,291.64,93,18,1.76,ZW,1738452323
529,palmer,42.1584,-72.3287,267.33,52,0,6.17,US,1738452324
530,barth,54.3635,12.7249,276.02,87,100,2.79,DE,1738452325
531,mineiros,-17.5694,-52.5511,293.1,96,67,2.78,BR,1738452327
532,sidney,-33.8679,151.2073,300.06,60,40,6.69,AU,1738452049
533,rusape,-18.5278,32.1284,290.47,87,45,2.03,ZW,1738452329
534,camocim,-2.9022,-40.8411,298.96,85,93,5.87,BR,1738452330
535,villa ojo de agua,-29.5,-63.6938,300.74,40,0,3.04,AR,1738452331
536,lucapa,-8.4192,20.7447,291.75,96,94,1.29,AO,1738452332
537,namibe,-15.1961,12.1522,295.67,80,100,1.38,AO,1738452333
538,sheldon,43.1811,-95.8561,278.23,70,100,7.72,US,1738452334
539,elliot lake,46.3834,-82.6331,253.35,100,95,1.01,CA,1738452335
540,sao joao da barra,-21.6403,-41.0511,298.54,86,33,10.35,BR,1738452337
541,'alaqahdari dishu,30.4374,63.313,278.56,46,0,0.8,AF,1738452338
542,naifaru,5.4444,73.3657,300.78,77,95,6.03,MV,1738452339
543,san jose del guaviare,2.5729,-72.6459,300.08,60,93,1.52,CO,1738452340
544,urzhar,47.093,81.6294,261.43,86,100,1.67,KZ,1738452162
545,padampur,29.6833,73.6167,283.59,58,0,3.61,IN,1738452343
546,praia,14.9215,-23.5087,294.45,64,75,10.88,CV,1738452344
547,brainerd,46.358,-94.2008,269.16,86,100,5.14,US,1738452346
548,roswell,34.0232,-84.3616,287.22,72,0,3.6,US,1738452347
549,bereznik,62.8551,42.7072,269.09,90,100,3.82,RU,1738452348
550,bakanas,44.8081,76.2772,265.95,91,83,2.25,KZ,1738452349
551,ozalp,38.6548,43.993,255.42,86,6,0.9,TR,1738452350
552,mejit,10.2753,170.8646,299.89,76,58,8.94,MH,1738452351
553,diepsloot,-25.9308,28.0123,295.38,85,100,0.89,ZA,1738452352
554,miyaly,48.8844,53.7836,266.13,90,38,3.62,KZ,1738452353
555,kidal,18.4411,1.4078,293.43,16,94,5.49,ML,1738452354
556,quang ngai,15.1167,108.8,290.44,92,30,1.57,VN,1738452356
557,korsakov,46.6328,142.7813,266.06,91,99,1.91,RU,1738452357
558,dolores,-36.3132,-57.6792,297.77,59,92,5.81,AR,1738452359
559,ndele,8.4109,20.6473,295.99,22,25,2.51,CF,1738452360
560,zhuanghe,39.7008,122.9911,265.88,73,83,1.54,CN,1738452361
561,kathu,7.9178,98.3332,299.65,84,29,1.95,TH,1738452362
562,buta,2.7858,24.73,294.04,41,33,0.23,CD,1738452363
563,chokwe,-24.5333,32.9833,298.18,78,19,1.6,MZ,1738452365
