City_ID,City,Lat,Lng,Max Temp,Humidity,Cloudiness,Wind Speed,Country,Date
0,blackmans bay,-43.0167,147.3167,295.22,65,scattered clouds,0.45,AU,1738450213
1,west island,-12.1568,96.8225,301.14,83,light rain,5.66,CC,1738450214
2,grytviken,-54.2811,-36.5092,276.06,82,light rain,5.18,GS,1738450215
3,port-aux-francais,-49.35,70.2167,278.1,86,overcast clouds,9.0,TF,1738450216
4,longyearbyen,78.2186,15.6401,274.06,69,broken clouds,2.57,SJ,1738450217
5,minas de marcona,-15.2119,-75.1103,292.55,74,overcast clouds,4.28,PE,1738450218
6,keflavik,64.0049,-22.5624,276.39,93,light rain,12.35,IS,1738450220
7,adamstown,-25.066,-130.1015,298.01,70,overcast clouds,7.03,PN,1738450221
8,saynshand,44.8824,110.1163,254.06,76,clear sky,5.68,MN,1738450222
9,okha,53.5739,142.9478,250.19,95,overcast clouds,3.82,RU,1738450223
10,port mathurin,-19.6833,63.4167,300.23,85,overcast clouds,8.93,MU,1738450224
11,kingston,17.997,-76.7936,300.68,74,broken clouds,6.17,JM,1738450091
12,andreyevo,55.9465,41.1505,275.05,97,overcast clouds,3.64,RU,1738450226
13,ilulissat,69.2167,-51.1,260.16,85,snow,10.29,GL,1738450227
14,codrington,-38.2667,141.9667,300.91,43,clear sky,1.58,AU,1738450228
15,ushuaia,-54.8,-68.3,287.96,55,scattered clouds,6.17,AR,1738450230
16,georgetown,5.4112,100.3354,298.12,73,few clouds,2.24,MY,1738450005
17,edinburgh of the seven seas,-37.0676,-12.3116,290.94,92,overcast clouds,6.44,SH,1738450232
18,waitangi,-43.9535,-176.5597,290.83,94,overcast clouds,1.34,NZ,1738450233
19,kavieng,-2.5744,150.7967,302.71,67,overcast clouds,6.3,PG,1738450234
20,isafjordur,66.0755,-23.124,271.19,96,snow,3.19,IS,1738450235
21,ribeira grande,38.5167,-28.7,286.37,76,few clouds,3.58,PT,1738450236
22,sandnessjoen,66.0217,12.6316,270.24,78,clear sky,7.43,NO,1738450237
23,tannum sands,-23.9504,151.3693,299.09,73,overcast clouds,5.14,AU,1738450239
24,aleksandrovskoye,44.7142,43.0008,275.13,92,overcast clouds,0.95,RU,1738450240
25,tazovsky,67.4667,78.7,245.8,90,broken clouds,4.49,RU,1738450241
26,toba,34.4833,136.85,280.53,89,moderate rain,4.01,JP,1738450239
27,wotje,9.4543,170.2367,300.33,77,scattered clouds,8.62,MH,1738450243
28,wenatchee,47.4235,-120.3103,280.4,41,clear sky,4.63,US,1738450244
29,egilsstadir,65.2653,-14.3948,278.1,70,scattered clouds,10.29,IS,1738450245
30,bethel,41.3712,-73.414,269.29,63,few clouds,2.24,US,1738450246
31,bella vista,36.4295,-94.2316,286.67,62,clear sky,6.69,US,1738450247
32,margaret river,-33.95,115.0667,287.95,89,scattered clouds,2.99,AU,1738450249
33,hermanus,-34.4187,19.2345,293.04,81,few clouds,1.65,ZA,1738450250
34,laojunmiao,39.8333,97.7333,263.54,84,overcast clouds,2.59,CN,1738450251
35,montevideo,-34.8335,-56.1674,298.48,67,clear sky,5.66,UY,1738450252
36,utrik,11.2278,169.8474,299.6,70,scattered clouds,8.71,MH,1738450253
37,dunedin,-45.8742,170.5036,287.2,69,overcast clouds,3.67,NZ,1738450254
38,nyrob,60.733,56.7202,273.02,99,light snow,0.78,RU,1738450255
39,san antonio de pale,-1.4014,5.6325,300.5,77,light rain,3.0,GQ,1738450256
40,afaahiti,-17.75,-149.2833,299.6,77,overcast clouds,4.99,PF,1738450257
41,lebu,-37.6167,-73.65,288.79,73,clear sky,6.54,CL,1738450259
42,punta arenas,-53.15,-70.9167,288.21,63,clear sky,7.2,CL,1738450260
43,kocakoy,38.2903,40.5025,275.22,39,clear sky,2.64,TR,1738450261
44,laguna,38.421,-121.4238,285.34,90,light rain,10.29,US,1738450262
45,remire-montjoly,4.9167,-52.2667,297.17,94,clear sky,1.54,GF,1738450263
46,rockland,41.1668,-74.0496,270.73,35,clear sky,5.51,US,1738450264
47,yellowknife,62.456,-114.3525,245.05,89,broken clouds,5.14,CA,1738450265
48,lihue,21.9789,-159.3672,298.0,56,clear sky,3.6,US,1738450094
49,thompson,55.7435,-97.8558,253.24,71,light snow,3.09,CA,1738450267
50,vernon,50.2581,-119.2691,275.89,55,broken clouds,0.51,CA,1738450269
51,sabang,5.8933,95.3214,300.04,69,overcast clouds,3.02,ID,1738450270
52,tanah rata,4.475,101.3704,287.78,89,overcast clouds,0.44,MY,1738450271
53,nykarleby,63.5228,22.5307,269.77,94,overcast clouds,4.27,FI,1738450272
54,pariaman,-0.619,100.12,298.18,90,overcast clouds,1.88,ID,1738450273
55,newcastle,-32.9272,151.7765,299.1,62,overcast clouds,2.57,AU,1738450274
56,vadso,70.0744,29.7487,273.24,64,overcast clouds,8.75,NO,1738450275
57,iqaluit,63.7506,-68.5145,246.0,63,scattered clouds,2.06,CA,1738450276
58,badger,64.8,-147.5333,255.45,77,light snow,0.0,US,1738450278
59,sinabang,2.4803,96.3801,299.38,81,moderate rain,1.28,ID,1738450279
60,guaruja,-23.9931,-46.2564,298.06,94,light rain,1.34,BR,1738450242
61,marka,1.7159,44.7717,296.75,82,overcast clouds,8.13,SO,1738450281
62,karratha,-20.7377,116.8463,304.11,71,broken clouds,2.73,AU,1738450282
63,stanley,54.868,-1.6985,276.16,84,clear sky,4.63,GB,1738450283
64,tsuruoka,38.7217,139.8217,270.17,93,scattered clouds,2.57,JP,1738450284
65,presidente medici,-11.1753,-61.9014,297.28,97,overcast clouds,1.88,BR,1738450286
66,malango,-2.9627,119.9001,292.44,85,overcast clouds,1.5,ID,1738450288
67,praia da vitoria,38.7333,-27.0667,286.29,88,few clouds,2.0,PT,1738450289
68,flying fish cove,-10.4217,105.6791,299.97,94,light rain,5.14,CX,1738450290
69,newberry,34.2746,-81.6187,287.4,67,clear sky,1.96,US,1738450292
70,atafu village,-8.5421,-172.5159,301.14,77,light rain,7.16,TK,1738450293
71,kristiansund,63.1115,7.732,273.51,59,overcast clouds,2.57,NO,1738450294
72,la ronge,55.1001,-105.2842,255.29,78,light snow,3.09,CA,1738450296
73,crane,31.3974,-102.3501,296.18,10,clear sky,3.5,US,1738450297
74,puerto natales,-51.7236,-72.4875,289.4,44,broken clouds,7.72,CL,1738450298
75,funafuti,-8.5243,179.1942,304.15,74,few clouds,6.17,TV,1738450299
76,ntoum,0.3833,9.7833,297.85,91,broken clouds,1.32,GA,1738450300
77,college,64.8569,-147.8028,255.49,69,snow,0.0,US,1738450301
78,portland,45.5234,-122.6762,281.49,79,broken clouds,4.63,US,1738450241
79,burang,30.25,81.1667,255.96,21,clear sky,2.93,CN,1738450303
80,bredasdorp,-34.5322,20.0403,292.77,73,overcast clouds,2.55,ZA,1738450305
81,callao,-12.0667,-77.15,297.31,73,clear sky,8.23,PE,1738450306
82,vikulovo,56.8167,70.6107,261.83,97,overcast clouds,1.68,RU,1738450307
83,salavan,15.7167,106.4167,289.73,72,scattered clouds,1.84,LA,1738450308
84,celestun,20.8667,-90.4,298.05,81,light rain,6.02,MX,1738450309
85,ust-nera,64.5667,143.2,237.88,99,overcast clouds,1.35,RU,1738450310
86,duku,11.2361,4.9073,298.38,19,few clouds,2.37,NG,1738450311
87,hithadhoo,-0.6,73.0833,300.74,77,overcast clouds,3.31,MV,1738450312
88,chonchi,-42.6128,-73.8092,291.55,57,scattered clouds,1.64,CL,1738450313
89,sittwe,20.15,92.9,292.73,83,few clouds,4.72,MM,1738450315
90,nishinoomote,30.7333,131.0,287.62,81,overcast clouds,10.87,JP,1738450316
91,sola,-13.8833,167.55,301.21,77,overcast clouds,10.02,VU,1738450317
92,fenyi,27.8112,114.6681,281.27,94,overcast clouds,1.02,CN,1738450319
93,douentza,14.9951,-2.9517,294.71,17,overcast clouds,4.42,ML,1738450320
94,qaqortoq,60.7167,-46.0333,255.87,93,scattered clouds,1.65,GL,1738450321
95,buckeye,33.3703,-112.5838,297.46,20,few clouds,0.38,US,1738450323
96,mugia,43.1041,-9.2179,285.32,90,overcast clouds,3.12,ES,1738450324
97,geraldton,-28.7667,114.6,293.38,88,clear sky,4.12,AU,1738450325
98,susuman,62.7833,148.1667,228.63,100,broken clouds,0.33,RU,1738450326
99,quellon,-43.1167,-73.6167,288.21,62,broken clouds,2.0,CL,1738450327
100,fada,7.25,4.0667,297.69,81,clear sky,1.05,NG,1738450328
101,margate,51.3813,1.3862,276.87,83,clear sky,0.45,GB,1738450329
102,albany,42.6001,-73.9662,262.95,73,scattered clouds,6.71,US,1738450330
103,iskateley,67.6803,53.1512,252.57,95,broken clouds,5.78,RU,1738450331
104,bilibino,68.0546,166.4372,239.67,98,overcast clouds,0.35,RU,1738450333
105,tynda,55.1667,124.7167,252.55,97,overcast clouds,2.05,RU,1738450334
106,burela de cabo,43.65,-7.4,283.75,92,overcast clouds,1.33,ES,1738450335
107,klyuchi,52.2667,79.1667,266.62,95,light snow,5.73,RU,1738450336
108,shevchenko,48.5,35.0,274.98,99,snow,3.75,UA,1738450337
109,harper,4.375,-7.7169,299.87,83,scattered clouds,2.45,LR,1738450338
110,saipan,15.1355,145.701,299.62,88,clear sky,6.17,MP,1738450339
111,tukrah,32.5341,20.5791,286.84,55,overcast clouds,3.7,LY,1738450340
112,loukhi,66.0764,33.0381,267.03,93,light snow,5.48,RU,1738450342
113,wailua homesteads,22.0669,-159.378,297.66,58,clear sky,3.6,US,1738450343
114,papatowai,-46.5619,169.4708,288.38,52,broken clouds,3.11,NZ,1738450344
115,pathein,16.7833,94.7333,295.29,80,overcast clouds,4.62,MM,1738450345
116,serov,59.6033,60.5787,272.31,96,overcast clouds,1.75,RU,1738450346
117,east london,-33.0153,27.9116,295.53,87,scattered clouds,4.82,ZA,1738450347
118,yung shue wan,22.2333,114.1167,291.9,90,overcast clouds,7.62,HK,1738450348
119,kodiak,57.79,-152.4072,275.88,75,clear sky,4.12,US,1738450349
120,tiksi,71.6872,128.8694,244.88,98,overcast clouds,4.84,RU,1738450350
121,haciqabul,40.0408,48.9445,278.86,81,clear sky,0.65,AZ,1738450353
122,bria,6.5423,21.9863,295.17,27,broken clouds,1.12,CF,1738450354
123,avarua,-21.2078,-159.775,301.18,74,few clouds,6.17,CK,1738450355
124,kailua-kona,19.6406,-155.9956,301.26,75,scattered clouds,3.09,US,1738450356
125,vilyuchinsk,52.9306,158.4028,261.3,82,broken clouds,4.48,RU,1738450357
126,itoman,26.1247,127.6694,291.58,90,broken clouds,8.23,JP,1738450220
127,tommot,58.9564,126.2925,247.16,100,overcast clouds,0.85,RU,1738450359
128,hobyo,5.3505,48.5268,296.96,79,broken clouds,9.32,SO,1738450361
129,kenora,49.8167,-94.4337,263.69,85,light snow,6.71,CA,1738450362
130,severo-yeniseyskiy,60.3725,93.0408,239.33,100,broken clouds,1.47,RU,1738450363
131,kamaishi,39.2667,141.8833,272.32,59,overcast clouds,1.62,JP,1738450364
132,samalut,28.3121,30.7101,286.75,67,overcast clouds,3.97,EG,1738450365
133,bikenibeu village,1.3673,173.1241,302.13,79,scattered clouds,7.2,KI,1738450367
134,rikaze,29.25,88.8833,269.74,20,clear sky,1.18,CN,1738450368
135,yuzhno-kurilsk,44.0306,145.8556,269.96,76,overcast clouds,4.82,RU,1738450370
136,kiruna,67.8557,20.2251,270.66,86,light snow,3.09,SE,1738450371
137,viveiro,43.6623,-7.5934,286.61,89,overcast clouds,1.67,ES,1738450372
138,klaksvik,62.2266,-6.589,279.34,92,overcast clouds,5.54,FO,1738450373
139,carnarvon,-24.8667,113.6333,302.12,60,scattered clouds,9.62,AU,1738450374
140,kiuruvesi,63.65,26.6167,268.46,95,light snow,2.86,FI,1738450375
141,fort st. john,56.2499,-120.8529,248.09,58,scattered clouds,6.69,CA,1738450376
142,arish,31.1316,33.7984,283.25,87,clear sky,0.0,EG,1738450377
143,hamilton,39.1834,-84.5333,276.47,62,few clouds,1.79,US,1738450379
144,smirnykh,49.75,142.8333,255.89,85,overcast clouds,2.12,RU,1738450380
145,bom jardim,-7.7958,-35.5872,297.04,79,few clouds,4.32,BR,1738450381
146,greenville,35.6127,-77.3663,286.12,67,overcast clouds,4.63,US,1738450382
147,el calafate,-50.3408,-72.2768,287.92,53,scattered clouds,3.7,AR,1738450383
148,kuala belait,4.5833,114.1833,296.5,88,overcast clouds,1.9,BN,1738450384
149,bubaque,11.2833,-15.8333,299.68,56,clear sky,6.03,GW,1738450385
150,olonkinbyen,70.9221,-8.7187,273.07,97,light snow,13.03,SJ,1738450386
151,essaouira,31.5125,-9.77,286.87,67,clear sky,4.12,MA,1738450388
152,afonso bezerra,-5.4983,-36.5056,301.03,56,clear sky,8.47,BR,1738450389
153,garoowe,8.4054,48.4845,291.3,77,clear sky,5.35,SO,1738450391
154,nizhneudinsk,54.9076,99.0276,250.53,99,broken clouds,0.75,RU,1738450392
155,port-vila,-17.7338,168.3219,301.93,74,heavy intensity rain,5.14,VU,1738450393
156,bidar,17.9,77.55,293.66,42,overcast clouds,2.7,IN,1738450394
157,anadyr,64.75,177.4833,257.43,84,heavy shower snow,6.0,RU,1738450395
158,alice springs,-23.7,133.8833,304.9,22,clear sky,2.57,AU,1738450397
159,bamboo flat,11.7,92.7167,294.2,94,mist,1.03,IN,1738450398
160,tolanaro,-25.0319,46.9987,297.58,87,overcast clouds,1.7,MG,1738450399
161,port alfred,-33.5906,26.891,293.25,95,clear sky,3.47,ZA,1738450400
162,obo,5.3998,26.4869,296.34,29,broken clouds,1.63,CF,1738450401
163,talnakh,69.4865,88.3972,242.7,96,few clouds,1.91,RU,1738450402
164,visconde do rio branco,-21.0103,-42.8406,296.46,89,overcast clouds,2.52,BR,1738450403
165,taybad,34.74,60.7756,273.84,66,clear sky,2.48,IR,1738450404
166,maceio,-9.6658,-35.7353,298.84,88,few clouds,1.54,BR,1738450405
167,arraial do cabo,-22.9661,-42.0278,298.39,87,overcast clouds,11.09,BR,1738450407
168,hawaiian paradise park,19.5933,-154.9731,299.88,87,light rain,4.12,US,1738450408
169,al marj,32.488,20.8317,283.87,62,overcast clouds,5.59,LY,1738450409
170,shakhun'ya,57.6758,46.6114,273.82,98,overcast clouds,4.64,RU,1738450410
171,kurmuk,10.55,34.2833,297.04,29,scattered clouds,1.56,SD,1738450411
172,shakawe,-18.3667,21.85,295.2,72,overcast clouds,2.29,BW,1738450412
173,san luis de la loma,17.2706,-100.8939,301.98,51,clear sky,3.84,MX,1738450413
174,new norfolk,-42.7826,147.0587,296.32,32,scattered clouds,0.55,AU,1738450414
175,cabo san lucas,22.8909,-109.9124,294.05,47,clear sky,2.66,MX,1738450170
176,mont-dore,-22.2833,166.5833,302.61,74,overcast clouds,5.61,NC,1738450417
177,puerto ayora,-0.7393,-90.3518,299.57,92,broken clouds,1.34,EC,1738450418
178,colonia,50.9333,6.95,272.73,89,clear sky,1.54,DE,1738450419
179,petropavlovsk-kamchatsky,53.0452,158.6483,260.48,56,clear sky,2.0,RU,1738450420
180,levuka,50.1834,-105.4011,262.99,89,overcast clouds,7.05,CA,1738450421
181,chapada dos guimaraes,-15.4606,-55.7497,293.38,95,moderate rain,1.95,BR,1738450422
182,salalah,17.0151,54.0924,291.2,17,clear sky,2.57,OM,1738450423
183,pekan,3.4836,103.3996,296.66,84,overcast clouds,2.06,MY,1738450426
184,nar'yan-mar,67.6713,53.087,252.68,95,broken clouds,5.83,RU,1738450427
185,hualien city,23.9769,121.6044,290.55,99,overcast clouds,3.41,TW,1738450428
186,roma,43.2128,-75.4557,261.23,72,broken clouds,4.12,US,1738450430
187,luderitz,-26.6481,15.1594,290.91,73,few clouds,7.6,NA,1738450432
188,wangjing,24.6,94.0333,280.52,90,clear sky,0.28,IN,1738450433
189,nizao,18.25,-70.2,298.64,73,clear sky,5.5,DO,1738450434
190,qamdo,31.1667,97.2333,266.42,69,clear sky,2.35,CN,1738450435
191,sibut,5.718,19.0739,297.9,24,broken clouds,1.53,CF,1738450436
192,nemuro,43.3236,145.575,268.95,75,clear sky,2.86,JP,1738450437
193,nanma,36.1817,118.1583,273.03,85,overcast clouds,1.35,CN,1738450438
194,wewak,-3.5534,143.6268,299.94,84,overcast clouds,1.68,PG,1738450439
195,dudinka,69.4058,86.1778,238.58,100,scattered clouds,1.93,RU,1738450440
196,christchurch,-43.5333,172.6333,292.54,65,overcast clouds,1.03,NZ,1738450442
197,tabou,4.423,-7.3528,299.77,84,few clouds,2.59,CI,1738450443
198,sainte-adresse,49.5089,0.0845,275.39,93,clear sky,4.63,FR,1738450444
199,azul,-36.777,-59.8585,304.9,28,broken clouds,5.33,AR,1738450446
200,miri,4.4148,114.0089,296.23,100,scattered clouds,1.54,MY,1738450447
201,yanchep,-31.55,115.6833,295.2,51,scattered clouds,2.37,AU,1738450449
202,bangolo,7.0069,-7.475,295.89,26,overcast clouds,0.25,CI,1738450450
203,port elizabeth,-33.918,25.5701,294.44,98,clear sky,0.89,ZA,1738450451
204,sao jose da coroa grande,-8.8978,-35.1478,299.85,78,few clouds,4.53,BR,1738450452
205,mogadishu,2.0371,45.3438,296.99,83,overcast clouds,10.03,SO,1738450453
206,novo aripuana,-5.1206,-60.3797,297.28,97,light rain,1.23,BR,1738450454
207,caldwell,43.6629,-116.6874,282.49,71,overcast clouds,3.09,US,1738450216
208,nelson bay,-32.7167,152.15,299.32,66,broken clouds,1.79,AU,1738450456
209,nizhneangarsk,55.7833,109.55,247.52,79,broken clouds,2.77,RU,1738450458
210,zintan,31.9223,12.252,283.83,39,clear sky,4.83,LY,1738450459
211,iquique,-20.2208,-70.1431,294.37,83,scattered clouds,0.63,CL,1738450438
212,alaghsas,17.0187,8.0168,292.06,15,overcast clouds,5.2,NE,1738450461
213,nyurba,63.2842,118.3319,243.26,96,overcast clouds,2.47,RU,1738450462
214,puerto aysen,-45.4,-72.7,285.84,90,overcast clouds,2.14,CL,1738450463
215,shatura,55.5725,39.5368,275.05,82,overcast clouds,3.27,RU,1738450464
216,cadale,2.7603,46.3222,297.14,80,overcast clouds,10.02,SO,1738450465
217,las lomitas,-24.7096,-60.593,304.91,28,clear sky,2.28,AR,1738450468
218,katsuura,35.1333,140.3,280.74,93,moderate rain,10.48,JP,1738450469
219,whitehorse,60.7161,-135.0538,248.58,57,few clouds,3.6,CA,1738450470
220,ghat,24.9647,10.1728,291.37,21,overcast clouds,1.7,LY,1738450471
221,taoudenni,22.6783,-3.9836,287.48,27,clear sky,4.19,ML,1738450472
222,paita,-5.0892,-81.1144,296.32,78,broken clouds,4.91,PE,1738450473
223,isla mujeres,21.2311,-86.731,301.02,74,clear sky,4.03,MX,1738450474
224,bir hadaj,31.0263,34.7031,284.7,77,clear sky,1.3,IL,1738450475
225,el granada,37.5027,-122.4694,289.51,93,mist,5.14,US,1738450476
226,savelugu,9.6244,-0.8253,300.44,15,broken clouds,3.04,GH,1738450478
227,megion,61.0296,76.1136,258.16,99,overcast clouds,1.62,RU,1738450479
228,vorgashor,67.5833,63.95,246.59,94,scattered clouds,2.88,RU,1738450480
229,rehoboth,-23.3167,17.0833,297.96,31,scattered clouds,2.66,NA,1738450481
230,invercargill,-46.4,168.35,290.38,59,overcast clouds,0.89,NZ,1738450482
231,beipiao,41.7919,120.7792,261.93,90,overcast clouds,1.37,CN,1738450483
232,baotou,40.6522,109.8222,262.59,77,few clouds,3.86,CN,1738450484
233,ghanzi,-21.5667,21.7833,298.96,43,broken clouds,3.76,BW,1738450485
234,lorengau,-2.0226,147.2712,301.8,78,overcast clouds,2.23,PG,1738450487
235,vila franca do campo,37.7167,-25.4333,287.38,85,scattered clouds,3.03,PT,1738450488
236,udachny,66.4167,112.4,232.77,100,overcast clouds,1.94,RU,1738450489
237,thunder bay,48.4001,-89.3168,262.14,85,overcast clouds,2.57,CA,1738450490
238,posto da mata,-17.8848,-39.8536,297.86,81,broken clouds,3.37,BR,1738450491
239,laredo,27.5064,-99.5075,300.31,16,clear sky,5.14,US,1738450492
240,island harbour,50.724,-1.2758,279.19,85,broken clouds,1.34,GB,1738450493
241,wynyard,-41.0,145.7167,294.18,71,broken clouds,3.77,AU,1738450494
242,antofagasta,-23.65,-70.4,294.75,84,clear sky,1.95,CL,1738450496
243,narvik,68.4384,17.4272,268.11,77,scattered clouds,3.58,NO,1738450497
244,aasiaat,68.7098,-52.8699,255.04,93,overcast clouds,5.45,GL,1738450498
245,chibougamau,49.9168,-74.3659,251.94,77,clear sky,2.06,CA,1738450499
246,howard springs,-12.497,131.047,303.1,95,overcast clouds,3.61,AU,1738450500
247,jamestown,42.097,-79.2353,264.95,79,clear sky,2.06,US,1738450501
248,mahina,-17.5065,-149.489,304.02,70,clear sky,6.69,PF,1738450502
249,filingue,14.3521,3.3168,296.77,15,overcast clouds,3.17,NE,1738450503
250,juticalpa,14.65,-86.2,300.09,62,scattered clouds,2.35,HN,1738450505
251,mehekar,20.15,76.5667,293.9,38,broken clouds,2.75,IN,1738450506
252,catriel,-37.8791,-67.7956,305.18,25,clear sky,1.92,AR,1738450507
253,santa ana,33.7456,-117.8678,296.39,46,haze,4.63,US,1738450508
254,nur-sultan,51.1801,71.446,270.12,93,light snow,5.0,KZ,1738450509
255,camana,-16.6228,-72.7111,295.95,83,scattered clouds,1.56,PE,1738450510
256,fortuna,40.5982,-124.1573,285.66,99,clear sky,0.0,US,1738450511
257,palmares do sul,-30.2578,-50.5097,296.5,82,clear sky,3.56,BR,1738450512
258,taro,-8.3862,115.28,293.87,96,overcast clouds,1.07,ID,1738450514
259,tromso,69.6496,18.957,272.16,100,broken clouds,1.03,NO,1738450515
260,cockburn town,21.4612,-71.1419,299.13,83,scattered clouds,5.14,TC,1738450516
261,santyoku,37.4406,129.1708,274.08,78,broken clouds,3.05,KR,1738450517
262,ambodifotatra,-16.9833,49.85,300.9,76,overcast clouds,1.38,MG,1738450518
263,al bardiyah,31.7561,25.0865,287.62,74,overcast clouds,4.03,LY,1738450519
264,misliyah,17.4599,42.5572,298.16,75,clear sky,2.15,SA,1738450520
265,ta`u,-14.2336,-169.5144,300.93,80,light rain,6.83,AS,1738450522
266,itupiranga,-5.1347,-49.3267,296.95,95,overcast clouds,0.75,BR,1738450523
267,taroa,8.7058,171.2275,299.91,83,light rain,9.69,MH,1738450524
268,ocana,8.2377,-73.356,296.85,56,overcast clouds,2.87,CO,1738450525
269,usinsk,65.9939,57.5281,254.89,93,few clouds,6.38,RU,1738450527
270,letterkenny,54.95,-7.7333,280.94,92,light rain,7.97,IE,1738450529
271,robertsport,6.7533,-11.3686,299.81,88,overcast clouds,3.11,LR,1738450530
272,humaita,-7.5061,-63.0208,296.97,97,overcast clouds,0.76,BR,1738450531
273,hillvue,-31.1244,150.915,299.1,44,clear sky,7.72,AU,1738450532
274,midvagur,62.0511,-7.1939,279.61,100,mist,3.6,FO,1738450533
275,boyolangu,-8.1181,111.8935,297.12,93,overcast clouds,2.26,ID,1738450537
276,chita,52.0333,113.55,246.09,70,overcast clouds,0.0,RU,1738450538
277,inda silase,14.1031,38.2829,289.6,51,clear sky,1.48,ET,1738450539
278,pierre,44.3683,-100.351,288.66,29,clear sky,5.66,US,1738450540
279,tobruk,32.0836,23.9764,287.91,75,overcast clouds,4.21,LY,1738450541
280,khandyga,62.6667,135.6,228.73,100,overcast clouds,0.52,RU,1738450543
281,noumea,-22.2763,166.4572,302.61,99,overcast clouds,7.19,NC,1738450544
282,susanville,40.4163,-120.653,279.06,87,overcast clouds,4.63,US,1738450545
283,asmara,15.3333,38.9333,283.51,81,broken clouds,2.16,ER,1738450546
284,mount isa,-20.7333,139.5,301.02,57,overcast clouds,7.2,AU,1738450547
285,carutapera,-1.195,-46.02,297.11,93,broken clouds,2.79,BR,1738450548
286,atbasar,51.8,68.3333,270.02,96,overcast clouds,3.81,KZ,1738450549
287,belyy yar,53.6039,91.3903,247.09,84,fog,0.0,RU,1738450550
288,alofi,-19.0595,-169.9187,303.09,74,broken clouds,5.14,NU,1738450552
289,priyutnoye,46.1011,43.5072,277.4,83,overcast clouds,3.85,RU,1738450553
290,port hueneme,34.1478,-119.1951,294.75,66,clear sky,5.66,US,1738450554
291,wanaraja,-7.1749,107.9808,293.21,96,overcast clouds,2.22,ID,1738450555
292,tura,25.5198,90.2201,286.81,47,clear sky,1.13,IN,1738450556
293,st. john's,47.5649,-52.7093,267.02,81,overcast clouds,2.06,CA,1738450557
294,batouri,4.4333,14.3667,295.94,26,overcast clouds,0.36,CM,1738450558
295,tamanrasset,22.785,5.5228,284.1,20,clear sky,2.06,DZ,1738450560
296,polyarnyy,69.1989,33.4478,264.14,87,broken clouds,3.35,RU,1738450561
297,fale old settlement,-9.3852,-171.2468,301.21,77,light rain,6.78,TK,1738450562
298,gizo,-8.103,156.8419,302.66,68,overcast clouds,5.36,SB,1738450563
299,shahba,32.8551,36.629,280.41,68,clear sky,2.18,SY,1738450564
300,amos,48.5669,-78.1162,246.98,100,overcast clouds,1.15,CA,1738450565
301,viqueque,-8.8673,126.3658,298.49,90,overcast clouds,1.16,TL,1738450568
302,saint-pierre,-21.3393,55.4781,299.97,94,light rain,3.6,RE,1738450569
303,mount gambier,-37.8333,140.7667,299.94,43,clear sky,2.44,AU,1738450570
304,sanctuary point,-35.1114,150.629,296.72,64,clear sky,3.23,AU,1738450571
305,castillos,-34.1667,-53.8333,294.54,91,clear sky,2.73,UY,1738450572
306,luanda,-8.8368,13.2343,299.16,82,overcast clouds,3.5,AO,1738450573
307,kashgar,39.4547,75.9797,267.71,35,clear sky,3.0,CN,1738450574
308,salinopolis,-0.6136,-47.3561,298.69,84,overcast clouds,4.4,BR,1738450576
309,kitimat,54.0524,-128.6534,265.32,71,overcast clouds,0.45,CA,1738450577
310,yamada,39.4667,141.95,271.77,56,overcast clouds,1.37,JP,1738450578
311,dauphin,51.1494,-100.0502,261.23,72,overcast clouds,6.17,CA,1738450580
312,meadow lakes,61.6247,-149.6011,264.4,60,clear sky,0.45,US,1738450581
313,howrah,22.5892,88.3103,294.15,94,mist,0.0,IN,1738450582
314,dawson creek,55.7666,-120.2362,247.95,58,clear sky,4.63,CA,1738450584
315,sitka,57.0531,-135.33,269.09,26,few clouds,5.14,US,1738450585
316,kupang,-10.1667,123.5833,301.47,89,broken clouds,3.09,ID,1738450586
317,mawu,34.4307,104.9176,262.57,86,overcast clouds,1.98,CN,1738450587
318,champerico,14.3,-91.9167,302.41,62,scattered clouds,4.12,GT,1738450588
319,saacow,1.6279,42.4407,297.13,70,overcast clouds,6.57,SO,1738450589
320,bozoum,6.3193,16.3799,296.15,22,overcast clouds,1.12,CF,1738450590
321,rivne,50.6231,26.2274,275.97,83,overcast clouds,3.56,UA,1738450591
322,prince rupert,54.3161,-130.3201,269.2,54,overcast clouds,10.29,CA,1738450593
323,aktau,43.65,51.2,273.47,70,clear sky,6.99,KZ,1738450594
324,conceicao do araguaia,-8.2578,-49.2647,297.4,87,light rain,0.22,BR,1738450595
325,kapa'a,22.0752,-159.319,298.41,59,clear sky,3.6,US,1738450596
326,tsiombe,-25.3,45.4833,295.4,85,clear sky,2.21,MG,1738450597
327,harstad,68.799,16.5293,273.24,90,overcast clouds,3.4,NO,1738450598
328,petukhovo,55.0692,67.9019,272.53,97,overcast clouds,3.25,RU,1738450599
329,campbellton,48.0075,-66.6727,256.4,80,overcast clouds,5.54,CA,1738450600
330,buka,40.8108,69.1986,273.23,67,clear sky,0.84,UZ,1738450602
331,soio,-6.1349,12.3689,299.79,85,overcast clouds,3.09,AO,1738450603
332,barinas,8.6226,-70.2075,303.32,37,broken clouds,4.05,VE,1738450604
333,wenchang,30.904,118.4887,278.74,86,overcast clouds,3.52,CN,1738450605
334,tarawa,1.419,172.984,302.2,79,scattered clouds,7.2,KI,1738450606
335,nago,26.5881,127.9761,290.78,84,overcast clouds,4.01,JP,1738450607
336,queenstown,-31.8976,26.8753,291.3,81,broken clouds,1.3,ZA,1738450608
337,enewetak,11.3474,162.3373,300.06,78,light rain,10.67,MH,1738450609
338,churapcha,62.0025,132.4325,230.98,100,overcast clouds,1.32,RU,1738450611
339,port blair,11.6667,92.75,294.17,94,mist,1.03,IN,1738450612
340,selfoss,63.9331,-20.9971,276.51,79,overcast clouds,11.14,IS,1738450613
341,yulinshi,38.2906,109.7494,268.26,47,overcast clouds,4.43,CN,1738450614
342,las heras,-46.5419,-68.9359,293.71,24,overcast clouds,11.43,AR,1738450615
343,forster,-32.1667,152.5167,296.52,61,broken clouds,1.04,AU,1738450616
344,blytheville,35.9273,-89.919,282.14,76,overcast clouds,3.6,US,1738450617
345,masuguru,-11.3667,38.4167,296.19,91,overcast clouds,1.5,TZ,1738450619
346,ola,59.5833,151.2833,246.85,83,few clouds,3.58,RU,1738450620
347,taradale,-39.5333,176.85,294.83,71,overcast clouds,2.68,NZ,1738450621
348,nakamura,32.9833,132.9333,280.25,95,moderate rain,1.28,JP,1738450622
349,saudarkrokur,65.7461,-19.6394,272.32,80,snow,6.32,IS,1738450623
350,panchgani,17.9167,73.8167,291.81,45,broken clouds,1.86,IN,1738450624
351,georgievka,49.3314,81.5761,263.15,81,overcast clouds,6.65,KZ,1738450627
352,al hawatah,13.4167,34.6333,299.27,32,few clouds,5.82,SD,1738450628
353,constantia,44.1833,28.65,275.76,84,scattered clouds,4.48,RO,1738450348
354,pitanga,-24.7572,-51.7614,292.29,87,clear sky,0.22,BR,1738450630
355,chui,-33.6971,-53.4616,295.22,90,few clouds,3.01,UY,1738450631
356,dryden,49.7833,-92.7503,261.31,85,snow,6.17,CA,1738450632
357,baringo,0.4667,35.9667,297.32,49,overcast clouds,1.58,KE,1738450633
358,zambezi,-13.5432,23.1047,291.98,84,overcast clouds,1.62,ZM,1738450634
359,taltal,-25.4,-70.4833,293.59,75,scattered clouds,1.91,CL,1738450636
360,ambovombe,-25.1667,46.0833,296.39,82,few clouds,3.57,MG,1738450637
361,puerto armuelles,8.2833,-82.8667,301.53,71,light rain,2.24,PA,1738450638
362,natal,-5.795,-35.2094,301.27,74,clear sky,4.12,BR,1738450639
363,manicore,-5.8092,-61.3003,297.21,98,moderate rain,0.7,BR,1738450640
364,mizdah,31.4451,12.9801,284.66,32,clear sky,3.49,LY,1738450641
365,jora,26.3333,77.8167,287.32,52,clear sky,0.75,IN,1738450642
366,enriquillo,17.9,-71.2333,296.56,81,clear sky,4.16,DO,1738450644
367,mulanje,-16.0316,35.5,296.02,91,overcast clouds,0.55,MW,1738450645
368,dhidhdhoo,6.8833,73.1,300.6,74,overcast clouds,2.84,MV,1738450647
369,chatellerault,46.8,0.5333,274.02,95,clear sky,2.42,FR,1738450648
370,kargasok,59.0556,80.8572,257.58,95,light snow,3.7,RU,1738450649
371,princeville,45.7668,-61.2985,265.8,76,light snow,6.69,CA,1738450650
372,phan rang-thap cham,11.5667,108.9833,292.04,76,scattered clouds,1.74,VN,1738450652
373,magadan,59.5667,150.8,247.53,78,clear sky,3.07,RU,1738450653
374,tanga,-5.0667,39.1,297.4,89,overcast clouds,4.87,TZ,1738450654
375,saint-philippe,-21.3585,55.7679,300.29,88,light rain,5.13,RE,1738450655
376,batangafo,7.3008,18.2833,296.53,21,overcast clouds,1.39,CF,1738450657
377,aitape,-3.1374,142.3475,300.28,79,overcast clouds,1.31,PG,1738450659
378,nova sintra,14.8667,-24.7167,295.15,72,clear sky,11.07,CV,1738450660
379,yangambi,0.8102,24.4336,298.0,46,scattered clouds,0.75,CD,1738450661
380,acapulco de juarez,16.8634,-99.8901,299.28,57,clear sky,4.58,MX,1738450662
381,qobustan,40.0824,49.412,279.96,80,clear sky,1.47,AZ,1738450663
382,guerrero negro,27.9769,-114.0611,292.33,48,scattered clouds,5.72,MX,1738450664
383,cruzeiro do oeste,-23.785,-53.0733,296.66,69,scattered clouds,2.01,BR,1738450665
384,galesong,-5.3166,119.3661,299.1,79,overcast clouds,2.53,ID,1738450666
385,luena,-11.7833,19.9167,289.62,96,overcast clouds,1.74,AO,1738450668
386,daru,-9.0763,143.2092,300.49,82,overcast clouds,5.79,PG,1738450669
387,maroantsetra,-15.4333,49.7333,297.63,93,light rain,1.35,MG,1738450670
388,kanniyakumari,8.0833,77.5667,298.62,81,overcast clouds,7.43,IN,1738450671
389,gisborne,-38.6533,178.0042,292.34,89,overcast clouds,5.87,NZ,1738450672
390,lazaro cardenas,17.9583,-102.2,301.31,57,clear sky,4.8,MX,1738450673
391,nueva gerona,21.8833,-82.8,298.78,66,few clouds,1.3,CU,1738450674
392,santa vitoria do palmar,-33.5189,-53.3681,295.22,90,clear sky,2.95,BR,1738450675
393,mohammedia,33.7066,-7.3944,284.26,100,few clouds,3.09,MA,1738450677
394,kerewan,13.4898,-16.0888,296.9,6,clear sky,5.41,GM,1738450678
395,horta,38.5333,-28.6333,285.95,84,few clouds,4.02,PT,1738450679
396,neryungri,56.6709,124.6491,248.49,96,overcast clouds,3.7,RU,1738450680
397,tanumah,27.1,44.1333,283.84,47,clear sky,4.06,SA,1738450681
398,lompoc,34.6391,-120.4579,292.88,73,mist,3.09,US,1738450682
399,pisco,-13.7,-76.2167,296.18,83,broken clouds,3.6,PE,1738450683
400,aykhal,66.0,111.5,236.22,100,overcast clouds,2.94,RU,1738450684
401,uturoa,-16.7333,-151.4333,301.28,69,broken clouds,4.13,PF,1738450686
402,mbeya,-8.9,33.45,288.0,94,overcast clouds,0.88,TZ,1738450687
403,meulaboh,4.1363,96.1285,297.17,91,overcast clouds,1.74,ID,1738450688
404,razole,16.4833,81.8333,292.39,96,few clouds,0.17,IN,1738450689
405,ginir,7.1333,40.7,287.8,33,few clouds,1.78,ET,1738450690
406,gosaba,22.165,88.7998,293.47,95,clear sky,1.79,IN,1738450691
407,mili,6.0815,171.735,300.39,80,light rain,8.25,MH,1738450692
408,hasaki,35.7333,140.8333,280.48,88,moderate rain,6.82,JP,1738450694
409,vilyuysk,63.7553,121.6247,231.74,100,broken clouds,1.61,RU,1738450695
410,parabel',58.6978,81.4825,256.66,94,overcast clouds,3.22,RU,1738450696
411,mount pearl,47.5166,-52.7813,266.56,83,overcast clouds,2.06,CA,1738450476
412,yerofey pavlovich,53.9667,121.9667,252.31,98,overcast clouds,1.12,RU,1738450698
413,gaiman,-43.2897,-65.4929,296.26,43,few clouds,12.53,AR,1738450699
414,cesky krumlov,48.8109,14.3152,271.35,92,broken clouds,0.79,CZ,1738450700
415,nili,33.7218,66.1302,260.93,50,clear sky,2.83,AF,1738450701
416,byron bay,-28.65,153.6167,298.91,57,overcast clouds,5.42,AU,1738450704
417,rodolfo sanchez taboada,31.7167,-116.5667,289.87,98,broken clouds,0.89,MX,1738450705
418,milliken,40.3294,-104.8552,286.52,38,overcast clouds,9.83,US,1738450706
419,leua,48.2156,18.6071,275.76,76,light rain,2.58,SK,1738450707
420,espinosa,-14.9261,-42.8192,294.86,88,overcast clouds,1.08,BR,1738450708
421,toliara,-23.35,43.6667,297.81,82,clear sky,3.91,MG,1738450709
422,abeche,13.8292,20.8324,293.54,21,scattered clouds,3.58,TD,1738450710
423,dwarka,22.2394,68.9678,292.43,53,clear sky,4.47,IN,1738450712
424,trincomalee,8.5711,81.2335,299.83,75,broken clouds,3.58,LK,1738450713
425,kruisfontein,-34.0033,24.7314,291.9,88,clear sky,1.8,ZA,1738450714
426,souillac,-20.5167,57.5167,300.36,94,light rain,5.14,MU,1738450715
427,la'ie,21.6477,-157.9253,300.96,52,clear sky,2.24,US,1738450716
428,gadzhiyevo,69.2551,33.3362,264.8,87,broken clouds,3.7,RU,1738450717
429,bougaa,36.3329,5.0884,276.14,91,overcast clouds,0.96,DZ,1738450718
430,orsk,51.2049,58.5668,273.65,100,overcast clouds,5.0,RU,1738450666
431,winslow,35.0242,-110.6974,292.25,19,clear sky,2.57,US,1738450721
432,port lincoln,-34.7333,135.8667,297.05,57,clear sky,3.41,AU,1738450722
433,haiku-pauwela,20.9219,-156.3051,298.29,81,scattered clouds,8.05,US,1738450723
434,chatham,51.3789,0.5279,274.24,1,clear sky,2.57,GB,1738450724
435,castelnovo ne'monti,44.4356,10.4033,276.13,100,overcast clouds,1.6,IT,1738450725
436,beli,7.8587,10.9719,298.03,17,broken clouds,1.27,NG,1738450726
437,san patricio,28.017,-97.5169,293.07,34,broken clouds,3.95,US,1738450729
438,saeby,57.3319,10.5225,275.54,87,broken clouds,2.47,DK,1738450730
439,raduzhny,62.0961,77.475,254.02,98,overcast clouds,2.39,RU,1738450731
440,bandar lampung,-5.4254,105.258,295.38,98,overcast clouds,2.47,ID,1738450732
441,kiunga,-6.1219,141.2906,297.57,91,overcast clouds,1.46,PG,1738450733
442,oranjemund,-28.55,16.4333,290.22,95,few clouds,2.4,NA,1738450734
443,port clinton,41.512,-82.9377,269.35,78,broken clouds,4.12,US,1738450735
444,amungan,15.3652,119.9582,298.55,69,few clouds,1.41,PH,1738450737
445,weno,7.4515,151.8468,301.3,82,overcast clouds,9.08,FM,1738450738
446,atherton,53.5237,-2.4935,279.98,70,overcast clouds,1.79,GB,1738450740
447,tual,-5.6667,132.75,300.1,88,overcast clouds,9.88,ID,1738450741
448,as sulayyil,20.4607,45.5779,287.25,28,clear sky,3.8,SA,1738450742
449,shinyanga,-3.6667,33.4333,292.16,87,broken clouds,1.24,TZ,1738450743
450,opuwo,-18.0607,13.84,292.53,64,scattered clouds,3.34,NA,1738450745
451,northam,51.0333,-4.2167,280.26,80,overcast clouds,1.79,GB,1738450746
452,ha'il,27.5219,41.6907,282.16,46,clear sky,1.03,SA,1738450747
453,tazacorte,28.629,-17.9293,290.69,85,scattered clouds,7.2,ES,1738450748
454,ciudad lazaro cardenas,17.9583,-102.2,301.31,57,clear sky,4.8,MX,1738450673
455,fonte boa,-2.4959,-66.2662,297.98,94,broken clouds,1.02,BR,1738450750
456,happy valley-goose bay,53.3168,-60.3315,254.32,55,few clouds,6.69,CA,1738450753
457,san isidro,-12.1167,-77.05,296.92,73,clear sky,8.23,PE,1738450754
458,woods creek,47.8787,-121.8985,277.3,91,overcast clouds,4.17,US,1738450755
459,al mijlad,11.0333,27.7333,294.73,21,clear sky,7.32,SD,1738450756
460,volchikha,52.0333,80.3833,263.46,94,light snow,5.88,RU,1738450757
461,chichiriviche,10.9333,-68.2772,298.43,84,scattered clouds,5.55,VE,1738450758
462,bardai,11.65,7.2333,292.84,23,scattered clouds,3.04,NG,1738450760
463,basoko,1.2391,23.616,298.04,51,scattered clouds,0.61,CD,1738450761
464,lerwick,60.1545,-1.1494,280.13,89,overcast clouds,11.96,GB,1738450762
465,mthatha,-31.5889,28.7844,291.77,95,overcast clouds,1.04,ZA,1738450763
466,port douglas,-16.4833,145.4667,300.62,83,overcast clouds,2.13,AU,1738450727
467,thayetmyo,19.3167,95.1833,291.58,79,few clouds,1.7,MM,1738450765
468,sungai raya,0.7,108.9,297.7,91,overcast clouds,2.78,ID,1738450766
469,purpe,64.4803,76.6897,251.23,98,overcast clouds,4.35,RU,1738450767
470,talas,38.6908,35.5538,268.52,74,clear sky,2.06,TR,1738450769
471,holualoa,19.6228,-155.9522,299.19,76,scattered clouds,3.09,US,1738450770
472,marsh harbour,26.5412,-77.0636,296.94,77,scattered clouds,1.63,BS,1738450771
473,madalena,41.2162,-8.3345,285.47,95,overcast clouds,0.78,PT,1738450772
474,coahuayana de hidalgo,18.7,-103.6583,301.82,50,scattered clouds,2.22,MX,1738450773
475,itacoatiara,-3.1431,-58.4442,299.78,77,overcast clouds,0.97,BR,1738450774
476,mildura,-34.2,142.15,307.63,39,broken clouds,11.15,AU,1738450775
477,gonaives,19.45,-72.6833,300.82,66,broken clouds,1.86,HT,1738450777
478,buurhakaba,2.8026,44.0781,295.71,71,overcast clouds,5.69,SO,1738450778
479,revda,56.801,59.9303,272.11,93,overcast clouds,4.69,RU,1738450779
480,vila do maio,15.1333,-23.2167,294.04,70,clear sky,11.77,CV,1738450780
481,truro,50.2653,-5.0544,281.75,80,broken clouds,8.23,GB,1738450781
482,puerto baquerizo moreno,-0.9,-89.6,301.7,70,few clouds,4.12,EC,1738450782
483,vila velha,-20.3297,-40.2925,300.12,83,broken clouds,7.2,BR,1738450783
484,severoural'sk,60.1533,59.952,267.73,97,overcast clouds,1.37,RU,1738450784
485,saldanha,-33.0117,17.9442,291.57,87,clear sky,7.59,ZA,1738450786
486,sur,22.5667,59.5289,291.3,57,clear sky,2.37,OM,1738450787
487,wuyang,31.9925,116.2472,278.33,89,light rain,2.57,CN,1738450788
488,ilha de mocambique,-15.0342,40.7358,299.69,87,light rain,1.76,MZ,1738450789
489,chinchilla,-26.75,150.6333,298.72,62,overcast clouds,3.58,AU,1738450790
490,caleta de carquin,-11.0925,-77.6267,296.05,79,broken clouds,3.72,PE,1738450791
491,coari,-4.085,-63.1414,297.32,97,overcast clouds,1.8,BR,1738450792
492,gandu,-13.7439,-39.4867,295.9,95,few clouds,1.39,BR,1738450793
493,kralendijk,12.15,-68.2667,301.14,69,few clouds,7.72,BQ,1738450795
494,kayangel,8.0823,134.7173,301.64,74,broken clouds,9.62,PW,1738450796
495,harnai,30.1005,67.9374,281.83,23,clear sky,2.09,PK,1738450797
496,manokwari,-0.8667,134.0833,299.51,82,overcast clouds,4.63,ID,1738450798
497,thinadhoo,0.5333,72.9333,300.81,78,overcast clouds,4.22,MV,1738450799
498,kudymkar,59.0173,54.656,272.89,95,overcast clouds,4.03,RU,1738450800
499,naxos,37.1056,25.3764,288.87,42,scattered clouds,4.02,GR,1738450801
500,mhamid,29.82,-5.72,284.05,29,clear sky,2.42,MA,1738450802
501,orkney,-26.9802,26.6727,297.6,52,overcast clouds,5.4,ZA,1738450804
502,kerrville,30.0474,-99.1403,296.07,23,clear sky,4.63,US,1738450805
503,kerikeri,-35.2268,173.9474,298.45,45,few clouds,1.6,NZ,1738450806
504,kankan,10.3854,-9.3057,297.17,16,overcast clouds,2.34,GN,1738450807
505,westport,41.1415,-73.3579,271.43,53,clear sky,4.02,US,1738450808
506,berezovyy,51.6667,135.7,253.23,99,overcast clouds,0.48,RU,1738450809
507,kalmunai,7.4167,81.8167,297.41,84,overcast clouds,1.37,LK,1738450810
508,buxtehude,53.45,9.7,272.01,98,overcast clouds,0.51,DE,1738450811
509,garnet,33.902,-116.5456,296.62,23,clear sky,3.09,US,1738450813
510,port saint john's,-31.6229,29.5448,296.2,91,overcast clouds,4.1,ZA,1738450814
511,cascais,38.6979,-9.4215,287.88,81,overcast clouds,4.02,PT,1738450815
512,tidjikja,18.5564,-11.4271,289.64,18,clear sky,6.9,MR,1738450816
513,fraserburgh,57.6874,-2.0184,279.15,81,overcast clouds,10.33,GB,1738450817
514,ylitornio,66.3089,23.6773,269.99,94,overcast clouds,4.18,FI,1738450818
515,cosquin,-31.2451,-64.4656,301.67,41,clear sky,3.56,AR,1738450819
516,chabahar,25.2919,60.643,291.61,43,clear sky,3.26,IR,1738450820
517,cidreira,-30.1811,-50.2056,297.27,83,clear sky,3.86,BR,1738450822
518,tanguieta,10.6212,1.2665,298.05,20,overcast clouds,2.11,BJ,1738450823
519,antalaha,-14.9003,50.2788,297.73,92,overcast clouds,1.83,MG,1738450824
520,stalbe,57.3719,25.0343,272.32,95,broken clouds,2.42,LV,1738450825
521,alness,57.696,-4.2551,281.02,90,overcast clouds,2.22,GB,1738450826
522,sinop,41.7711,34.8709,278.29,75,clear sky,1.31,TR,1738450827
523,masindi port,1.6961,32.0861,297.2,45,overcast clouds,0.57,UG,1738450828
524,aleg,17.0481,-13.9209,293.34,13,clear sky,6.66,MR,1738450829
525,aldan,58.6031,125.3894,246.92,100,overcast clouds,0.97,RU,1738450831
526,dourbali,11.8091,15.8632,295.56,15,broken clouds,4.09,TD,1738450832
527,sisimiut,66.9395,-53.6735,255.87,95,overcast clouds,2.13,GL,1738450559
528,chipinge,-20.1883,32.6236,291.64,93,few clouds,1.76,ZW,1738450834
529,palmer,42.1584,-72.3287,267.88,50,few clouds,1.79,US,1738450835
530,barth,54.3635,12.7249,276.02,87,overcast clouds,2.79,DE,1738450836
531,mineiros,-17.5694,-52.5511,293.1,96,light rain,2.78,BR,1738450837
532,sidney,-33.8679,151.2073,299.99,62,scattered clouds,5.14,AU,1738450565
533,rusape,-18.5278,32.1284,290.47,87,scattered clouds,2.03,ZW,1738450840
534,camocim,-2.9022,-40.8411,298.96,85,overcast clouds,5.87,BR,1738450841
535,villa ojo de agua,-29.5,-63.6938,300.74,40,clear sky,3.04,AR,1738450842
536,lucapa,-8.4192,20.7447,291.75,96,light rain,1.29,AO,1738450843
537,namibe,-15.1961,12.1522,295.67,80,overcast clouds,1.38,AO,1738450844
538,sheldon,43.1811,-95.8561,279.14,61,overcast clouds,7.72,US,1738450845
539,elliot lake,46.3834,-82.6331,253.35,100,overcast clouds,1.01,CA,1738450846
540,sao joao da barra,-21.6403,-41.0511,299.2,86,scattered clouds,10.35,BR,1738450848
541,'alaqahdari dishu,30.4374,63.313,278.56,46,clear sky,0.8,AF,1738450849
542,naifaru,5.4444,73.3657,300.78,77,overcast clouds,6.03,MV,1738450850
543,san jose del guaviare,2.5729,-72.6459,300.08,60,overcast clouds,1.52,CO,1738450851
544,urzhar,47.093,81.6294,261.43,86,overcast clouds,1.67,KZ,1738450852
545,padampur,29.6833,73.6167,283.59,58,clear sky,3.61,IN,1738450854
546,praia,14.9215,-23.5087,294.45,60,broken clouds,10.8,CV,1738450856
547,brainerd,46.358,-94.2008,269.16,86,snow,4.12,US,1738450857
548,roswell,34.0232,-84.3616,287.99,70,clear sky,0.45,US,1738450858
549,bereznik,62.8551,42.7072,269.09,90,overcast clouds,3.82,RU,1738450859
550,bakanas,44.8081,76.2772,265.95,91,broken clouds,2.25,KZ,1738450860
551,ozalp,38.6548,43.993,255.42,86,clear sky,0.9,TR,1738450861
552,mejit,10.2753,170.8646,299.89,76,broken clouds,8.94,MH,1738450862
553,diepsloot,-25.9308,28.0123,295.81,84,overcast clouds,0.89,ZA,1738450863
554,miyaly,48.8844,53.7836,266.13,90,scattered clouds,3.62,KZ,1738450865
555,kidal,18.4411,1.4078,293.43,16,overcast clouds,5.49,ML,1738450866
556,quang ngai,15.1167,108.8,290.44,92,scattered clouds,1.57,VN,1738450867
557,korsakov,46.6328,142.7813,266.06,91,overcast clouds,1.91,RU,1738450868
558,dolores,-36.3132,-57.6792,297.77,59,overcast clouds,5.81,AR,1738450870
559,ndele,8.4109,20.6473,295.99,22,scattered clouds,2.51,CF,1738450871
560,zhuanghe,39.7008,122.9911,265.88,73,broken clouds,1.54,CN,1738450872
561,kathu,7.9178,98.3332,294.05,75,scattered clouds,1.95,TH,1738450874
562,buta,2.7858,24.73,294.04,41,scattered clouds,0.23,CD,1738450875
563,chokwe,-24.5333,32.9833,298.18,78,few clouds,1.6,MZ,1738450876
